{
"type": "FeatureCollection",
"name": "seoul-subway-stations_v2",
"crs": { "type": "name", "properties": { "name": "urn:ogc:def:crs:OGC:1.3:CRS84" } },
"features": [
{ "type": "Feature", "properties": { "field_1": 0, "line": "01호선", "name_kr": "소요산", "lat": 37.9481, "lng": 127.061034, "no": "100", "name_en": "Soyosan", "link-en": "https://en.wikipedia.org/wiki/Soyosan_station", "link-kr": "https://ko.wikipedia.org/wiki/소요산역" }, "geometry": { "type": "Point", "coordinates": [ 127.061034, 37.9481 ] } },
{ "type": "Feature", "properties": { "field_1": 1, "line": "01호선", "name_kr": "동두천", "lat": 37.927878, "lng": 127.05479, "no": "101", "name_en": "Dongducheon", "link-en": "https://en.wikipedia.org/wiki/Dongducheon_station", "link-kr": "https://ko.wikipedia.org/wiki/동두천역" }, "geometry": { "type": "Point", "coordinates": [ 127.05479, 37.927878 ] } },
{ "type": "Feature", "properties": { "field_1": 2, "line": "01호선", "name_kr": "보산", "lat": 37.913702, "lng": 127.057277, "no": "102", "name_en": "Bosan", "link-en": "https://en.wikipedia.org/wiki/Bosan_station", "link-kr": "https://ko.wikipedia.org/wiki/보산역" }, "geometry": { "type": "Point", "coordinates": [ 127.057277, 37.913702 ] } },
{ "type": "Feature", "properties": { "field_1": 3, "line": "01호선", "name_kr": "동두천중앙", "lat": 37.901885, "lng": 127.056482, "no": "103", "name_en": "Dongducheon Jungang", "link-en": "https://en.wikipedia.org/wiki/Dongducheon_Jungang_station", "link-kr": "https://ko.wikipedia.org/wiki/동두천중앙역" }, "geometry": { "type": "Point", "coordinates": [ 127.056482, 37.901885 ] } },
{ "type": "Feature", "properties": { "field_1": 4, "line": "01호선", "name_kr": "지행", "lat": 37.892334, "lng": 127.055716, "no": "104", "name_en": "Jihaeng", "link-en": "https://en.wikipedia.org/wiki/Jihaeng_station", "link-kr": "https://ko.wikipedia.org/wiki/지행역" }, "geometry": { "type": "Point", "coordinates": [ 127.055716, 37.892334 ] } },
{ "type": "Feature", "properties": { "field_1": 5, "line": "01호선", "name_kr": "덕정", "lat": 37.843188, "lng": 127.061277, "no": "105", "name_en": "Deokjeong", "link-en": "https://en.wikipedia.org/wiki/Deokjeong_station", "link-kr": "https://ko.wikipedia.org/wiki/덕정역" }, "geometry": { "type": "Point", "coordinates": [ 127.061277, 37.843188 ] } },
{ "type": "Feature", "properties": { "field_1": 6, "line": "01호선", "name_kr": "덕계", "lat": 37.818486, "lng": 127.056486, "no": "106", "name_en": "Deokgye", "link-en": "https://en.wikipedia.org/wiki/Deokgye_station", "link-kr": "https://ko.wikipedia.org/wiki/덕계역" }, "geometry": { "type": "Point", "coordinates": [ 127.056486, 37.818486 ] } },
{ "type": "Feature", "properties": { "field_1": 7, "line": "01호선", "name_kr": "양주", "lat": 37.774381, "lng": 127.044708, "no": "107", "name_en": "Yangju", "link-en": "https://en.wikipedia.org/wiki/Yangju_station", "link-kr": "https://ko.wikipedia.org/wiki/양주역" }, "geometry": { "type": "Point", "coordinates": [ 127.044708, 37.774381 ] } },
{ "type": "Feature", "properties": { "field_1": 8, "line": "01호선", "name_kr": "녹양", "lat": 37.75938, "lng": 127.042292, "no": "108", "name_en": "Nogyang", "link-en": "https://en.wikipedia.org/wiki/Nogyang_station", "link-kr": "https://ko.wikipedia.org/wiki/녹양역" }, "geometry": { "type": "Point", "coordinates": [ 127.042292, 37.75938 ] } },
{ "type": "Feature", "properties": { "field_1": 9, "line": "01호선", "name_kr": "가능", "lat": 37.748577, "lng": 127.044213, "no": "109", "name_en": "Ganeung", "link-en": "https://en.wikipedia.org/wiki/Ganeung_station", "link-kr": "https://ko.wikipedia.org/wiki/가능역" }, "geometry": { "type": "Point", "coordinates": [ 127.044213, 37.748577 ] } },
{ "type": "Feature", "properties": { "field_1": 10, "line": "01호선", "name_kr": "의정부", "lat": 37.738415, "lng": 127.045958, "no": "110", "name_en": "Uijeongbu", "link-en": "https://en.wikipedia.org/wiki/Uijeongbu_station", "link-kr": "https://ko.wikipedia.org/wiki/의정부역" }, "geometry": { "type": "Point", "coordinates": [ 127.045958, 37.738415 ] } },
{ "type": "Feature", "properties": { "field_1": 11, "line": "01호선", "name_kr": "회룡", "lat": 37.724846, "lng": 127.046895, "no": "111", "name_en": "Hoeryong", "link-en": "https://en.wikipedia.org/wiki/Hoeryong_station", "link-kr": "https://ko.wikipedia.org/wiki/회룡역" }, "geometry": { "type": "Point", "coordinates": [ 127.046895, 37.724846 ] } },
{ "type": "Feature", "properties": { "field_1": 12, "line": "01호선", "name_kr": "망월사", "lat": 37.709914, "lng": 127.047455, "no": "112", "name_en": "Mangwolsa", "link-en": "https://en.wikipedia.org/wiki/Mangwolsa_station", "link-kr": "https://ko.wikipedia.org/wiki/망월사역" }, "geometry": { "type": "Point", "coordinates": [ 127.047455, 37.709914 ] } },
{ "type": "Feature", "properties": { "field_1": 13, "line": "01호선", "name_kr": "도봉산", "lat": 37.689313, "lng": 127.046222, "no": "113", "name_en": "Dobongsan", "link-en": "https://en.wikipedia.org/wiki/Dobongsan_station", "link-kr": "https://ko.wikipedia.org/wiki/도봉산역" }, "geometry": { "type": "Point", "coordinates": [ 127.046222, 37.689313 ] } },
{ "type": "Feature", "properties": { "field_1": 14, "line": "01호선", "name_kr": "도봉", "lat": 37.679563, "lng": 127.045595, "no": "114", "name_en": "Dobong", "link-en": "https://en.wikipedia.org/wiki/Dobong_station", "link-kr": "https://ko.wikipedia.org/wiki/도봉역" }, "geometry": { "type": "Point", "coordinates": [ 127.045595, 37.679563 ] } },
{ "type": "Feature", "properties": { "field_1": 15, "line": "01호선", "name_kr": "방학", "lat": 37.667503, "lng": 127.044273, "no": "115", "name_en": "Banghak", "link-en": "https://en.wikipedia.org/wiki/Banghak_station", "link-kr": "https://ko.wikipedia.org/wiki/방학역" }, "geometry": { "type": "Point", "coordinates": [ 127.044273, 37.667503 ] } },
{ "type": "Feature", "properties": { "field_1": 16, "line": "01호선", "name_kr": "창동", "lat": 37.653166, "lng": 127.047731, "no": "116", "name_en": "Changdong", "link-en": "https://en.wikipedia.org/wiki/Changdong_station", "link-kr": "https://ko.wikipedia.org/wiki/창동역" }, "geometry": { "type": "Point", "coordinates": [ 127.047731, 37.653166 ] } },
{ "type": "Feature", "properties": { "field_1": 17, "line": "01호선", "name_kr": "녹천", "lat": 37.644799, "lng": 127.051269, "no": "117", "name_en": "Nokcheon", "link-en": "https://en.wikipedia.org/wiki/Nokcheon_station", "link-kr": "https://ko.wikipedia.org/wiki/녹천역" }, "geometry": { "type": "Point", "coordinates": [ 127.051269, 37.644799 ] } },
{ "type": "Feature", "properties": { "field_1": 18, "line": "01호선", "name_kr": "월계", "lat": 37.633212, "lng": 127.058831, "no": "118", "name_en": "Wolgye", "link-en": "https://en.wikipedia.org/wiki/Wolgye_station", "link-kr": "https://ko.wikipedia.org/wiki/월계역" }, "geometry": { "type": "Point", "coordinates": [ 127.058831, 37.633212 ] } },
{ "type": "Feature", "properties": { "field_1": 19, "line": "01호선", "name_kr": "광운대", "lat": 37.623632, "lng": 127.061835, "no": "119", "name_en": "Kwangwoon University", "link-en": "https://en.wikipedia.org/wiki/Kwangwoon_University_station", "link-kr": "https://ko.wikipedia.org/wiki/광운대역" }, "geometry": { "type": "Point", "coordinates": [ 127.061835, 37.623632 ] } },
{ "type": "Feature", "properties": { "field_1": 20, "line": "01호선", "name_kr": "석계", "lat": 37.614805, "lng": 127.065851, "no": "120", "name_en": "Seokgye", "link-en": "https://en.wikipedia.org/wiki/Seokgye_station", "link-kr": "https://ko.wikipedia.org/wiki/석계역" }, "geometry": { "type": "Point", "coordinates": [ 127.065851, 37.614805 ] } },
{ "type": "Feature", "properties": { "field_1": 21, "line": "01호선", "name_kr": "신이문", "lat": 37.601854, "lng": 127.067325, "no": "121", "name_en": "Sinimun", "link-en": "https://en.wikipedia.org/wiki/Sinimun_station", "link-kr": "https://ko.wikipedia.org/wiki/신이문역" }, "geometry": { "type": "Point", "coordinates": [ 127.067325, 37.601854 ] } },
{ "type": "Feature", "properties": { "field_1": 22, "line": "01호선", "name_kr": "외대앞", "lat": 37.596073, "lng": 127.063549, "no": "122", "name_en": "Hankuk University of Foreign Studies", "link-en": "https://en.wikipedia.org/wiki/Hankuk_University_of_Foreign_Studies_station", "link-kr": "https://ko.wikipedia.org/wiki/외대앞역" }, "geometry": { "type": "Point", "coordinates": [ 127.063549, 37.596073 ] } },
{ "type": "Feature", "properties": { "field_1": 23, "line": "01호선", "name_kr": "회기", "lat": 37.58946, "lng": 127.057583, "no": "123", "name_en": "Hoegi", "link-en": "https://en.wikipedia.org/wiki/Hoegi_station", "link-kr": "https://ko.wikipedia.org/wiki/회기역" }, "geometry": { "type": "Point", "coordinates": [ 127.057583, 37.58946 ] } },
{ "type": "Feature", "properties": { "field_1": 24, "line": "01호선", "name_kr": "청량리", "lat": 37.580178, "lng": 127.046835, "no": "124", "name_en": "Cheongnyangni", "link-en": "https://en.wikipedia.org/wiki/Cheongnyangni_station", "link-kr": "https://ko.wikipedia.org/wiki/청량리역" }, "geometry": { "type": "Point", "coordinates": [ 127.046835, 37.580178 ] } },
{ "type": "Feature", "properties": { "field_1": 25, "line": "01호선", "name_kr": "제기동", "lat": 37.578103, "lng": 127.034893, "no": "125", "name_en": "Jegi-dong", "link-en": "https://en.wikipedia.org/wiki/Jegi-dong_station", "link-kr": "https://ko.wikipedia.org/wiki/제기동역" }, "geometry": { "type": "Point", "coordinates": [ 127.034893, 37.578103 ] } },
{ "type": "Feature", "properties": { "field_1": 26, "line": "01호선", "name_kr": "신설동", "lat": 37.575297, "lng": 127.025087, "no": "126", "name_en": "Sinseol-dong", "link-en": "https://en.wikipedia.org/wiki/Sinseol-dong_station", "link-kr": "https://ko.wikipedia.org/wiki/신설동역" }, "geometry": { "type": "Point", "coordinates": [ 127.025087, 37.575297 ] } },
{ "type": "Feature", "properties": { "field_1": 27, "line": "01호선", "name_kr": "동묘앞", "lat": 37.572627, "lng": 127.016429, "no": "127", "name_en": "Dongmyo", "link-en": "https://en.wikipedia.org/wiki/Dongmyo_station", "link-kr": "https://ko.wikipedia.org/wiki/동묘앞역" }, "geometry": { "type": "Point", "coordinates": [ 127.016429, 37.572627 ] } },
{ "type": "Feature", "properties": { "field_1": 28, "line": "01호선", "name_kr": "동대문", "lat": 37.57142, "lng": 127.009745, "no": "128", "name_en": "Dongdaemun", "link-en": "https://en.wikipedia.org/wiki/Dongdaemun_station", "link-kr": "https://ko.wikipedia.org/wiki/동대문역" }, "geometry": { "type": "Point", "coordinates": [ 127.009745, 37.57142 ] } },
{ "type": "Feature", "properties": { "field_1": 29, "line": "01호선", "name_kr": "종로5가", "lat": 37.570926, "lng": 127.001849, "no": "129", "name_en": "Jongno 5(o)-ga", "link-en": "https://en.wikipedia.org/wiki/Jongno_5(o)-ga_station", "link-kr": "https://ko.wikipedia.org/wiki/종로5가역" }, "geometry": { "type": "Point", "coordinates": [ 127.001849, 37.570926 ] } },
{ "type": "Feature", "properties": { "field_1": 30, "line": "01호선", "name_kr": "종로3가", "lat": 37.571607, "lng": 126.991806, "no": "130", "name_en": "Jongno 3(sam)-ga", "link-en": "https://en.wikipedia.org/wiki/Jongno_3(sam)-ga_station", "link-kr": "https://ko.wikipedia.org/wiki/종로3가역" }, "geometry": { "type": "Point", "coordinates": [ 126.991806, 37.571607 ] } },
{ "type": "Feature", "properties": { "field_1": 31, "line": "01호선", "name_kr": "종각", "lat": 37.570161, "lng": 126.982923, "no": "131", "name_en": "Jonggak", "link-en": "https://en.wikipedia.org/wiki/Jonggak_station", "link-kr": "https://ko.wikipedia.org/wiki/종각역" }, "geometry": { "type": "Point", "coordinates": [ 126.982923, 37.570161 ] } },
{ "type": "Feature", "properties": { "field_1": 32, "line": "01호선", "name_kr": "시청", "lat": 37.564718, "lng": 126.977108, "no": "132", "name_en": "City Hall", "link-en": "https://en.wikipedia.org/wiki/City_Hall_station", "link-kr": "https://ko.wikipedia.org/wiki/시청역" }, "geometry": { "type": "Point", "coordinates": [ 126.977108, 37.564718 ] } },
{ "type": "Feature", "properties": { "field_1": 33, "line": "01호선", "name_kr": "서울역", "lat": 37.554648, "lng": 126.972559, "no": "133", "name_en": "Seoul", "link-en": "https://en.wikipedia.org/wiki/Seoul_station", "link-kr": "https://ko.wikipedia.org/wiki/서울역역" }, "geometry": { "type": "Point", "coordinates": [ 126.972559, 37.554648 ] } },
{ "type": "Feature", "properties": { "field_1": 34, "line": "01호선", "name_kr": "남영", "lat": 37.541021, "lng": 126.9713, "no": "134", "name_en": "Namyeong", "link-en": "https://en.wikipedia.org/wiki/Namyeong_station", "link-kr": "https://ko.wikipedia.org/wiki/남영역" }, "geometry": { "type": "Point", "coordinates": [ 126.9713, 37.541021 ] } },
{ "type": "Feature", "properties": { "field_1": 35, "line": "01호선", "name_kr": "용산", "lat": 37.529849, "lng": 126.964561, "no": "135", "name_en": "Yongsan", "link-en": "https://en.wikipedia.org/wiki/Yongsan_station", "link-kr": "https://ko.wikipedia.org/wiki/용산역" }, "geometry": { "type": "Point", "coordinates": [ 126.964561, 37.529849 ] } },
{ "type": "Feature", "properties": { "field_1": 36, "line": "01호선", "name_kr": "노량진", "lat": 37.514219, "lng": 126.942454, "no": "136", "name_en": "Noryangjin", "link-en": "https://en.wikipedia.org/wiki/Noryangjin_station", "link-kr": "https://ko.wikipedia.org/wiki/노량진역" }, "geometry": { "type": "Point", "coordinates": [ 126.942454, 37.514219 ] } },
{ "type": "Feature", "properties": { "field_1": 37, "line": "01호선", "name_kr": "대방", "lat": 37.513342, "lng": 126.926382, "no": "137", "name_en": "Daebang", "link-en": "https://en.wikipedia.org/wiki/Daebang_station", "link-kr": "https://ko.wikipedia.org/wiki/대방역" }, "geometry": { "type": "Point", "coordinates": [ 126.926382, 37.513342 ] } },
{ "type": "Feature", "properties": { "field_1": 38, "line": "01호선", "name_kr": "신길", "lat": 37.517122, "lng": 126.917169, "no": "138", "name_en": "Singil", "link-en": "https://en.wikipedia.org/wiki/Singil_station", "link-kr": "https://ko.wikipedia.org/wiki/신길역" }, "geometry": { "type": "Point", "coordinates": [ 126.917169, 37.517122 ] } },
{ "type": "Feature", "properties": { "field_1": 39, "line": "01호선", "name_kr": "영등포", "lat": 37.515504, "lng": 126.907628, "no": "139", "name_en": "Yeongdeungpo", "link-en": "https://en.wikipedia.org/wiki/Yeongdeungpo_station", "link-kr": "https://ko.wikipedia.org/wiki/영등포역" }, "geometry": { "type": "Point", "coordinates": [ 126.907628, 37.515504 ] } },
{ "type": "Feature", "properties": { "field_1": 40, "line": "01호선", "name_kr": "신도림", "lat": 37.508725, "lng": 126.891295, "no": "140", "name_en": "Sindorim", "link-en": "https://en.wikipedia.org/wiki/Sindorim_station", "link-kr": "https://ko.wikipedia.org/wiki/신도림역" }, "geometry": { "type": "Point", "coordinates": [ 126.891295, 37.508725 ] } },
{ "type": "Feature", "properties": { "field_1": 41, "line": "01호선", "name_kr": "구로", "lat": 37.503039, "lng": 126.881966, "no": "141", "name_en": "Guro", "link-en": "https://en.wikipedia.org/wiki/Guro_station", "link-kr": "https://ko.wikipedia.org/wiki/구로역" }, "geometry": { "type": "Point", "coordinates": [ 126.881966, 37.503039 ] } },
{ "type": "Feature", "properties": { "field_1": 42, "line": "01호선", "name_kr": "구일", "lat": 37.496756, "lng": 126.870793, "no": "142", "name_en": "Guil", "link-en": "https://en.wikipedia.org/wiki/Guil_station", "link-kr": "https://ko.wikipedia.org/wiki/구일역" }, "geometry": { "type": "Point", "coordinates": [ 126.870793, 37.496756 ] } },
{ "type": "Feature", "properties": { "field_1": 43, "line": "01호선", "name_kr": "개봉", "lat": 37.494594, "lng": 126.85868, "no": "143", "name_en": "Gaebong", "link-en": "https://en.wikipedia.org/wiki/Gaebong_station", "link-kr": "https://ko.wikipedia.org/wiki/개봉역" }, "geometry": { "type": "Point", "coordinates": [ 126.85868, 37.494594 ] } },
{ "type": "Feature", "properties": { "field_1": 44, "line": "01호선", "name_kr": "오류동", "lat": 37.494526, "lng": 126.845365, "no": "144", "name_en": "Oryu-dong", "link-en": "https://en.wikipedia.org/wiki/Oryu-dong_station", "link-kr": "https://ko.wikipedia.org/wiki/오류동역" }, "geometry": { "type": "Point", "coordinates": [ 126.845365, 37.494526 ] } },
{ "type": "Feature", "properties": { "field_1": 45, "line": "01호선", "name_kr": "온수", "lat": 37.492258, "lng": 126.823388, "no": "145", "name_en": "Onsu", "link-en": "https://en.wikipedia.org/wiki/Onsu_station", "link-kr": "https://ko.wikipedia.org/wiki/온수역" }, "geometry": { "type": "Point", "coordinates": [ 126.823388, 37.492258 ] } },
{ "type": "Feature", "properties": { "field_1": 46, "line": "01호선", "name_kr": "역곡", "lat": 37.485178, "lng": 126.811502, "no": "146", "name_en": "Yeokgok", "link-en": "https://en.wikipedia.org/wiki/Yeokgok_station", "link-kr": "https://ko.wikipedia.org/wiki/역곡역" }, "geometry": { "type": "Point", "coordinates": [ 126.811502, 37.485178 ] } },
{ "type": "Feature", "properties": { "field_1": 47, "line": "01호선", "name_kr": "소사", "lat": 37.482753, "lng": 126.79544, "no": "147", "name_en": "Sosa", "link-en": "https://en.wikipedia.org/wiki/Sosa_station", "link-kr": "https://ko.wikipedia.org/wiki/소사역" }, "geometry": { "type": "Point", "coordinates": [ 126.79544, 37.482753 ] } },
{ "type": "Feature", "properties": { "field_1": 48, "line": "01호선", "name_kr": "부천", "lat": 37.48405, "lng": 126.782686, "no": "148", "name_en": "Bucheon", "link-en": "https://en.wikipedia.org/wiki/Bucheon_station", "link-kr": "https://ko.wikipedia.org/wiki/부천역" }, "geometry": { "type": "Point", "coordinates": [ 126.782686, 37.48405 ] } },
{ "type": "Feature", "properties": { "field_1": 49, "line": "01호선", "name_kr": "중동", "lat": 37.486562, "lng": 126.764843, "no": "149", "name_en": "Jung-dong", "link-en": "https://en.wikipedia.org/wiki/Jung-dong_station", "link-kr": "https://ko.wikipedia.org/wiki/중동역" }, "geometry": { "type": "Point", "coordinates": [ 126.764843, 37.486562 ] } },
{ "type": "Feature", "properties": { "field_1": 50, "line": "01호선", "name_kr": "송내", "lat": 37.4876, "lng": 126.753664, "no": "150", "name_en": "Songnae", "link-en": "https://en.wikipedia.org/wiki/Songnae_station", "link-kr": "https://ko.wikipedia.org/wiki/송내역" }, "geometry": { "type": "Point", "coordinates": [ 126.753664, 37.4876 ] } },
{ "type": "Feature", "properties": { "field_1": 51, "line": "01호선", "name_kr": "부개", "lat": 37.488418, "lng": 126.74109, "no": "151", "name_en": "Bugae", "link-en": "https://en.wikipedia.org/wiki/Bugae_station", "link-kr": "https://ko.wikipedia.org/wiki/부개역" }, "geometry": { "type": "Point", "coordinates": [ 126.74109, 37.488418 ] } },
{ "type": "Feature", "properties": { "field_1": 52, "line": "01호선", "name_kr": "부평", "lat": 37.489493, "lng": 126.724805, "no": "152", "name_en": "Bupyeong", "link-en": "https://en.wikipedia.org/wiki/Bupyeong_station", "link-kr": "https://ko.wikipedia.org/wiki/부평역" }, "geometry": { "type": "Point", "coordinates": [ 126.724805, 37.489493 ] } },
{ "type": "Feature", "properties": { "field_1": 53, "line": "01호선", "name_kr": "백운", "lat": 37.483664, "lng": 126.707704, "no": "153", "name_en": "Baegun", "link-en": "https://en.wikipedia.org/wiki/Baegun_station", "link-kr": "https://ko.wikipedia.org/wiki/백운역" }, "geometry": { "type": "Point", "coordinates": [ 126.707704, 37.483664 ] } },
{ "type": "Feature", "properties": { "field_1": 54, "line": "01호선", "name_kr": "동암", "lat": 37.471408, "lng": 126.702896, "no": "154", "name_en": "Dongam", "link-en": "https://en.wikipedia.org/wiki/Dongam_station", "link-kr": "https://ko.wikipedia.org/wiki/동암역" }, "geometry": { "type": "Point", "coordinates": [ 126.702896, 37.471408 ] } },
{ "type": "Feature", "properties": { "field_1": 55, "line": "01호선", "name_kr": "간석", "lat": 37.464737, "lng": 126.694181, "no": "155", "name_en": "Ganseok", "link-en": "https://en.wikipedia.org/wiki/Ganseok_station", "link-kr": "https://ko.wikipedia.org/wiki/간석역" }, "geometry": { "type": "Point", "coordinates": [ 126.694181, 37.464737 ] } },
{ "type": "Feature", "properties": { "field_1": 56, "line": "01호선", "name_kr": "주안", "lat": 37.464941, "lng": 126.679923, "no": "156", "name_en": "Juan", "link-en": "https://en.wikipedia.org/wiki/Juan_station", "link-kr": "https://ko.wikipedia.org/wiki/주안역" }, "geometry": { "type": "Point", "coordinates": [ 126.679923, 37.464941 ] } },
{ "type": "Feature", "properties": { "field_1": 57, "line": "01호선", "name_kr": "도화", "lat": 37.46607, "lng": 126.668672, "no": "157", "name_en": "Dohwa", "link-en": "https://en.wikipedia.org/wiki/Dohwa_station", "link-kr": "https://ko.wikipedia.org/wiki/도화역" }, "geometry": { "type": "Point", "coordinates": [ 126.668672, 37.46607 ] } },
{ "type": "Feature", "properties": { "field_1": 58, "line": "01호선", "name_kr": "제물포", "lat": 37.466769, "lng": 126.656666, "no": "158", "name_en": "Jemulpo", "link-en": "https://en.wikipedia.org/wiki/Jemulpo_station", "link-kr": "https://ko.wikipedia.org/wiki/제물포역" }, "geometry": { "type": "Point", "coordinates": [ 126.656666, 37.466769 ] } },
{ "type": "Feature", "properties": { "field_1": 59, "line": "01호선", "name_kr": "도원", "lat": 37.468446, "lng": 126.642706, "no": "159", "name_en": "Dowon", "link-en": "https://en.wikipedia.org/wiki/Dowon_station", "link-kr": "https://ko.wikipedia.org/wiki/도원역" }, "geometry": { "type": "Point", "coordinates": [ 126.642706, 37.468446 ] } },
{ "type": "Feature", "properties": { "field_1": 60, "line": "01호선", "name_kr": "동인천", "lat": 37.475276, "lng": 126.632802, "no": "160", "name_en": "Dongincheon", "link-en": "https://en.wikipedia.org/wiki/Dongincheon_station", "link-kr": "https://ko.wikipedia.org/wiki/동인천역" }, "geometry": { "type": "Point", "coordinates": [ 126.632802, 37.475276 ] } },
{ "type": "Feature", "properties": { "field_1": 61, "line": "01호선", "name_kr": "인천", "lat": 37.476691, "lng": 126.616936, "no": "161", "name_en": "Incheon", "link-en": "https://en.wikipedia.org/wiki/Incheon_station", "link-kr": "https://ko.wikipedia.org/wiki/인천역" }, "geometry": { "type": "Point", "coordinates": [ 126.616936, 37.476691 ] } },
{ "type": "Feature", "properties": { "field_1": 62, "line": "01호선", "name_kr": "가산디지털단지", "lat": 37.481072, "lng": 126.882343, "no": "P142", "name_en": "Gasan Digital Complex", "link-en": "https://en.wikipedia.org/wiki/Gasan_Digital_Complex_station", "link-kr": "https://ko.wikipedia.org/wiki/가산디지털단지역" }, "geometry": { "type": "Point", "coordinates": [ 126.882343, 37.481072 ] } },
{ "type": "Feature", "properties": { "field_1": 63, "line": "01호선", "name_kr": "독산", "lat": 37.466613, "lng": 126.889249, "no": "P143", "name_en": "Doksan", "link-en": "https://en.wikipedia.org/wiki/Doksan_station", "link-kr": "https://ko.wikipedia.org/wiki/독산역" }, "geometry": { "type": "Point", "coordinates": [ 126.889249, 37.466613 ] } },
{ "type": "Feature", "properties": { "field_1": 64, "line": "01호선", "name_kr": "금천구청", "lat": 37.455626, "lng": 126.89398, "no": "P144", "name_en": "Geumcheon-gu Office", "link-en": "https://en.wikipedia.org/wiki/Geumcheon-gu_Office_station", "link-kr": "https://ko.wikipedia.org/wiki/금천구청역" }, "geometry": { "type": "Point", "coordinates": [ 126.89398, 37.455626 ] } },
{ "type": "Feature", "properties": { "field_1": 65, "line": "01호선", "name_kr": "광명", "lat": 37.416182, "lng": 126.884466, "no": "P144-1", "name_en": "Gwangmyeong", "link-en": "https://en.wikipedia.org/wiki/Gwangmyeong_station", "link-kr": "https://ko.wikipedia.org/wiki/광명역" }, "geometry": { "type": "Point", "coordinates": [ 126.884466, 37.416182 ] } },
{ "type": "Feature", "properties": { "field_1": 66, "line": "01호선", "name_kr": "석수", "lat": 37.435047, "lng": 126.902295, "no": "P145", "name_en": "Seoksu", "link-en": "https://en.wikipedia.org/wiki/Seoksu_station", "link-kr": "https://ko.wikipedia.org/wiki/석수역" }, "geometry": { "type": "Point", "coordinates": [ 126.902295, 37.435047 ] } },
{ "type": "Feature", "properties": { "field_1": 67, "line": "01호선", "name_kr": "관악", "lat": 37.419232, "lng": 126.908706, "no": "P146", "name_en": "Gwanak", "link-en": "https://en.wikipedia.org/wiki/Gwanak_station", "link-kr": "https://ko.wikipedia.org/wiki/관악역" }, "geometry": { "type": "Point", "coordinates": [ 126.908706, 37.419232 ] } },
{ "type": "Feature", "properties": { "field_1": 68, "line": "01호선", "name_kr": "안양", "lat": 37.401592, "lng": 126.922874, "no": "P147", "name_en": "Anyang", "link-en": "https://en.wikipedia.org/wiki/Anyang_station", "link-kr": "https://ko.wikipedia.org/wiki/안양역" }, "geometry": { "type": "Point", "coordinates": [ 126.922874, 37.401592 ] } },
{ "type": "Feature", "properties": { "field_1": 69, "line": "01호선", "name_kr": "명학", "lat": 37.384653, "lng": 126.935433, "no": "P148", "name_en": "Myeonghak", "link-en": "https://en.wikipedia.org/wiki/Myeonghak_station", "link-kr": "https://ko.wikipedia.org/wiki/명학역" }, "geometry": { "type": "Point", "coordinates": [ 126.935433, 37.384653 ] } },
{ "type": "Feature", "properties": { "field_1": 70, "line": "01호선", "name_kr": "금정", "lat": 37.372221, "lng": 126.943429, "no": "P149", "name_en": "Geumjeong", "link-en": "https://en.wikipedia.org/wiki/Geumjeong_station", "link-kr": "https://ko.wikipedia.org/wiki/금정역" }, "geometry": { "type": "Point", "coordinates": [ 126.943429, 37.372221 ] } },
{ "type": "Feature", "properties": { "field_1": 71, "line": "01호선", "name_kr": "군포", "lat": 37.35356, "lng": 126.948462, "no": "P150", "name_en": "Gunpo", "link-en": "https://en.wikipedia.org/wiki/Gunpo_station", "link-kr": "https://ko.wikipedia.org/wiki/군포역" }, "geometry": { "type": "Point", "coordinates": [ 126.948462, 37.35356 ] } },
{ "type": "Feature", "properties": { "field_1": 72, "line": "01호선", "name_kr": "당정", "lat": 37.344285, "lng": 126.948345, "no": "P151", "name_en": "Dangjeong", "link-en": "https://en.wikipedia.org/wiki/Dangjeong_station", "link-kr": "https://ko.wikipedia.org/wiki/당정역" }, "geometry": { "type": "Point", "coordinates": [ 126.948345, 37.344285 ] } },
{ "type": "Feature", "properties": { "field_1": 73, "line": "01호선", "name_kr": "의왕", "lat": 37.320852, "lng": 126.948217, "no": "P152", "name_en": "Uiwang", "link-en": "https://en.wikipedia.org/wiki/Uiwang_station", "link-kr": "https://ko.wikipedia.org/wiki/의왕역" }, "geometry": { "type": "Point", "coordinates": [ 126.948217, 37.320852 ] } },
{ "type": "Feature", "properties": { "field_1": 74, "line": "01호선", "name_kr": "성균관대", "lat": 37.300349, "lng": 126.97075, "no": "P153", "name_en": "Sungkyunkwan University", "link-en": "https://en.wikipedia.org/wiki/Sungkyunkwan_University_station", "link-kr": "https://ko.wikipedia.org/wiki/성균관대역" }, "geometry": { "type": "Point", "coordinates": [ 126.97075, 37.300349 ] } },
{ "type": "Feature", "properties": { "field_1": 75, "line": "01호선", "name_kr": "화서", "lat": 37.283862, "lng": 126.989627, "no": "P154", "name_en": "Hwaseo", "link-en": "https://en.wikipedia.org/wiki/Hwaseo_station", "link-kr": "https://ko.wikipedia.org/wiki/화서역" }, "geometry": { "type": "Point", "coordinates": [ 126.989627, 37.283862 ] } },
{ "type": "Feature", "properties": { "field_1": 76, "line": "01호선", "name_kr": "수원", "lat": 37.265974, "lng": 126.999874, "no": "P155", "name_en": "Suwon", "link-en": "https://en.wikipedia.org/wiki/Suwon_station", "link-kr": "https://ko.wikipedia.org/wiki/수원역" }, "geometry": { "type": "Point", "coordinates": [ 126.999874, 37.265974 ] } },
{ "type": "Feature", "properties": { "field_1": 77, "line": "01호선", "name_kr": "세류", "lat": 37.245025, "lng": 127.013222, "no": "P156", "name_en": "Seryu", "link-en": "https://en.wikipedia.org/wiki/Seryu_station", "link-kr": "https://ko.wikipedia.org/wiki/세류역" }, "geometry": { "type": "Point", "coordinates": [ 127.013222, 37.245025 ] } },
{ "type": "Feature", "properties": { "field_1": 78, "line": "01호선", "name_kr": "병점", "lat": 37.207503, "lng": 127.032731, "no": "P157", "name_en": "Byeongjeom", "link-en": "https://en.wikipedia.org/wiki/Byeongjeom_station", "link-kr": "https://ko.wikipedia.org/wiki/병점역" }, "geometry": { "type": "Point", "coordinates": [ 127.032731, 37.207503 ] } },
{ "type": "Feature", "properties": { "field_1": 79, "line": "01호선", "name_kr": "서동탄", "lat": 37.195504, "lng": 127.051672, "no": "P157-1", "name_en": "Seodongtan", "link-en": "https://en.wikipedia.org/wiki/Seodongtan_station", "link-kr": "https://ko.wikipedia.org/wiki/서동탄역" }, "geometry": { "type": "Point", "coordinates": [ 127.051672, 37.195504 ] } },
{ "type": "Feature", "properties": { "field_1": 80, "line": "01호선", "name_kr": "세마", "lat": 37.187533, "lng": 127.04318, "no": "P158", "name_en": "Sema", "link-en": "https://en.wikipedia.org/wiki/Sema_station", "link-kr": "https://ko.wikipedia.org/wiki/세마역" }, "geometry": { "type": "Point", "coordinates": [ 127.04318, 37.187533 ] } },
{ "type": "Feature", "properties": { "field_1": 81, "line": "01호선", "name_kr": "오산대", "lat": 37.168953, "lng": 127.063197, "no": "P159", "name_en": "Osan College", "link-en": "https://en.wikipedia.org/wiki/Osan_College_station", "link-kr": "https://ko.wikipedia.org/wiki/오산대역" }, "geometry": { "type": "Point", "coordinates": [ 127.063197, 37.168953 ] } },
{ "type": "Feature", "properties": { "field_1": 82, "line": "01호선", "name_kr": "오산", "lat": 37.145885, "lng": 127.06672, "no": "P160", "name_en": "Osan", "link-en": "https://en.wikipedia.org/wiki/Osan_station", "link-kr": "https://ko.wikipedia.org/wiki/오산역" }, "geometry": { "type": "Point", "coordinates": [ 127.06672, 37.145885 ] } },
{ "type": "Feature", "properties": { "field_1": 83, "line": "01호선", "name_kr": "진위", "lat": 37.109447, "lng": 127.062278, "no": "P161", "name_en": "Jinwi", "link-en": "https://en.wikipedia.org/wiki/Jinwi_station", "link-kr": "https://ko.wikipedia.org/wiki/진위역" }, "geometry": { "type": "Point", "coordinates": [ 127.062278, 37.109447 ] } },
{ "type": "Feature", "properties": { "field_1": 84, "line": "01호선", "name_kr": "송탄", "lat": 37.075696, "lng": 127.054301, "no": "P162", "name_en": "Songtan", "link-en": "https://en.wikipedia.org/wiki/Songtan_station", "link-kr": "https://ko.wikipedia.org/wiki/송탄역" }, "geometry": { "type": "Point", "coordinates": [ 127.054301, 37.075696 ] } },
{ "type": "Feature", "properties": { "field_1": 85, "line": "01호선", "name_kr": "서정리", "lat": 37.056496, "lng": 127.052819, "no": "P163", "name_en": "Seojeongri", "link-en": "https://en.wikipedia.org/wiki/Seojeongri_station", "link-kr": "https://ko.wikipedia.org/wiki/서정리역" }, "geometry": { "type": "Point", "coordinates": [ 127.052819, 37.056496 ] } },
{ "type": "Feature", "properties": { "field_1": 86, "line": "01호선", "name_kr": "지제", "lat": 37.0188, "lng": 127.070444, "no": "P164", "name_en": "Jije", "link-en": "https://en.wikipedia.org/wiki/Jije_station", "link-kr": "https://ko.wikipedia.org/wiki/지제역" }, "geometry": { "type": "Point", "coordinates": [ 127.070444, 37.0188 ] } },
{ "type": "Feature", "properties": { "field_1": 87, "line": "01호선", "name_kr": "평택", "lat": 36.990726, "lng": 127.085159, "no": "P165", "name_en": "Pyeongtaek", "link-en": "https://en.wikipedia.org/wiki/Pyeongtaek_station", "link-kr": "https://ko.wikipedia.org/wiki/평택역" }, "geometry": { "type": "Point", "coordinates": [ 127.085159, 36.990726 ] } },
{ "type": "Feature", "properties": { "field_1": 88, "line": "01호선", "name_kr": "성환", "lat": 36.916076, "lng": 127.126964, "no": "P166", "name_en": "Seonghwan", "link-en": "https://en.wikipedia.org/wiki/Seonghwan_station", "link-kr": "https://ko.wikipedia.org/wiki/성환역" }, "geometry": { "type": "Point", "coordinates": [ 127.126964, 36.916076 ] } },
{ "type": "Feature", "properties": { "field_1": 89, "line": "01호선", "name_kr": "직산", "lat": 36.870593, "lng": 127.143904, "no": "P167", "name_en": "Jiksan", "link-en": "https://en.wikipedia.org/wiki/Jiksan_station", "link-kr": "https://ko.wikipedia.org/wiki/직산역" }, "geometry": { "type": "Point", "coordinates": [ 127.143904, 36.870593 ] } },
{ "type": "Feature", "properties": { "field_1": 90, "line": "01호선", "name_kr": "두정", "lat": 36.833705, "lng": 127.14896, "no": "P168", "name_en": "Dujeong", "link-en": "https://en.wikipedia.org/wiki/Dujeong_station", "link-kr": "https://ko.wikipedia.org/wiki/두정역" }, "geometry": { "type": "Point", "coordinates": [ 127.14896, 36.833705 ] } },
{ "type": "Feature", "properties": { "field_1": 91, "line": "01호선", "name_kr": "천안", "lat": 36.810005, "lng": 127.146826, "no": "P169", "name_en": "Cheonan", "link-en": "https://en.wikipedia.org/wiki/Cheonan_station", "link-kr": "https://ko.wikipedia.org/wiki/천안역" }, "geometry": { "type": "Point", "coordinates": [ 127.146826, 36.810005 ] } },
{ "type": "Feature", "properties": { "field_1": 92, "line": "01호선", "name_kr": "봉명", "lat": 36.801215, "lng": 127.135763, "no": "P170", "name_en": "Bongmyeong", "link-en": "https://en.wikipedia.org/wiki/Bongmyeong_station", "link-kr": "https://ko.wikipedia.org/wiki/봉명역" }, "geometry": { "type": "Point", "coordinates": [ 127.135763, 36.801215 ] } },
{ "type": "Feature", "properties": { "field_1": 93, "line": "01호선", "name_kr": "쌍용", "lat": 36.793759, "lng": 127.1214, "no": "P171", "name_en": "Ssangyong", "link-en": "https://en.wikipedia.org/wiki/Ssangyong_station", "link-kr": "https://ko.wikipedia.org/wiki/쌍용역" }, "geometry": { "type": "Point", "coordinates": [ 127.1214, 36.793759 ] } },
{ "type": "Feature", "properties": { "field_1": 94, "line": "01호선", "name_kr": "아산", "lat": 36.792053, "lng": 127.104361, "no": "P172", "name_en": "Asan", "link-en": "https://en.wikipedia.org/wiki/Asan_station", "link-kr": "https://ko.wikipedia.org/wiki/아산역" }, "geometry": { "type": "Point", "coordinates": [ 127.104361, 36.792053 ] } },
{ "type": "Feature", "properties": { "field_1": 95, "line": "01호선", "name_kr": "배방", "lat": 36.777629, "lng": 127.052991, "no": "P174", "name_en": "Baebang", "link-en": "https://en.wikipedia.org/wiki/Baebang_station", "link-kr": "https://ko.wikipedia.org/wiki/배방역" }, "geometry": { "type": "Point", "coordinates": [ 127.052991, 36.777629 ] } },
{ "type": "Feature", "properties": { "field_1": 96, "line": "01호선", "name_kr": "온양온천", "lat": 36.780483, "lng": 127.003249, "no": "P176", "name_en": "Onyang Oncheon", "link-en": "https://en.wikipedia.org/wiki/Onyang_Oncheon_station", "link-kr": "https://ko.wikipedia.org/wiki/온양온천역" }, "geometry": { "type": "Point", "coordinates": [ 127.003249, 36.780483 ] } },
{ "type": "Feature", "properties": { "field_1": 97, "line": "01호선", "name_kr": "신창", "lat": 36.769502, "lng": 126.951108, "no": "P177", "name_en": "Sinchang", "link-en": "https://en.wikipedia.org/wiki/Sinchang_station", "link-kr": "https://ko.wikipedia.org/wiki/신창역" }, "geometry": { "type": "Point", "coordinates": [ 126.951108, 36.769502 ] } },
{ "type": "Feature", "properties": { "field_1": 99, "line": "02호선", "name_kr": "을지로입구", "lat": 37.566014, "lng": 126.982618, "no": "202", "name_en": "Euljiro 1(il)-ga", "link-en": "https://en.wikipedia.org/wiki/Euljiro_1(il)-ga_station", "link-kr": "https://ko.wikipedia.org/wiki/을지로입구역" }, "geometry": { "type": "Point", "coordinates": [ 126.982618, 37.566014 ] } },
{ "type": "Feature", "properties": { "field_1": 100, "line": "02호선", "name_kr": "을지로3가", "lat": 37.566295, "lng": 126.99191, "no": "203", "name_en": "Euljiro 3(sam)-ga", "link-en": "https://en.wikipedia.org/wiki/Euljiro_3(sam)-ga_station", "link-kr": "https://ko.wikipedia.org/wiki/을지로3가역" }, "geometry": { "type": "Point", "coordinates": [ 126.99191, 37.566295 ] } },
{ "type": "Feature", "properties": { "field_1": 101, "line": "02호선", "name_kr": "을지로4가", "lat": 37.566941, "lng": 126.998079, "no": "204", "name_en": "Euljiro 4(sa)-ga", "link-en": "https://en.wikipedia.org/wiki/Euljiro_4(sa)-ga_station", "link-kr": "https://ko.wikipedia.org/wiki/을지로4가역" }, "geometry": { "type": "Point", "coordinates": [ 126.998079, 37.566941 ] } },
{ "type": "Feature", "properties": { "field_1": 102, "line": "02호선", "name_kr": "동대문역사문화공원", "lat": 37.565138, "lng": 127.007896, "no": "205", "name_en": "Dongdaemun History & Culture Park", "link-en": "https://en.wikipedia.org/wiki/Dongdaemun_History_%26_Culture_Park_station", "link-kr": "https://ko.wikipedia.org/wiki/동대문역사문화공원역" }, "geometry": { "type": "Point", "coordinates": [ 127.007896, 37.565138 ] } },
{ "type": "Feature", "properties": { "field_1": 103, "line": "02호선", "name_kr": "신당", "lat": 37.565972, "lng": 127.01782, "no": "206", "name_en": "Sindang", "link-en": "https://en.wikipedia.org/wiki/Sindang_station", "link-kr": "https://ko.wikipedia.org/wiki/신당역" }, "geometry": { "type": "Point", "coordinates": [ 127.01782, 37.565972 ] } },
{ "type": "Feature", "properties": { "field_1": 104, "line": "02호선", "name_kr": "상왕십리", "lat": 37.564354, "lng": 127.029354, "no": "207", "name_en": "Sangwangsimni", "link-en": "https://en.wikipedia.org/wiki/Sangwangsimni_station", "link-kr": "https://ko.wikipedia.org/wiki/상왕십리역" }, "geometry": { "type": "Point", "coordinates": [ 127.029354, 37.564354 ] } },
{ "type": "Feature", "properties": { "field_1": 105, "line": "02호선", "name_kr": "왕십리", "lat": 37.561533, "lng": 127.037732, "no": "208", "name_en": "Wangsimni", "link-en": "https://en.wikipedia.org/wiki/Wangsimni_station", "link-kr": "https://ko.wikipedia.org/wiki/왕십리역" }, "geometry": { "type": "Point", "coordinates": [ 127.037732, 37.561533 ] } },
{ "type": "Feature", "properties": { "field_1": 106, "line": "02호선", "name_kr": "한양대", "lat": 37.555273, "lng": 127.043655, "no": "209", "name_en": "Hanyang University", "link-en": "https://en.wikipedia.org/wiki/Hanyang_University_station", "link-kr": "https://ko.wikipedia.org/wiki/한양대역" }, "geometry": { "type": "Point", "coordinates": [ 127.043655, 37.555273 ] } },
{ "type": "Feature", "properties": { "field_1": 107, "line": "02호선", "name_kr": "뚝섬", "lat": 37.547184, "lng": 127.047367, "no": "210", "name_en": "Ttukseom", "link-en": "https://en.wikipedia.org/wiki/Ttukseom_station", "link-kr": "https://ko.wikipedia.org/wiki/뚝섬역" }, "geometry": { "type": "Point", "coordinates": [ 127.047367, 37.547184 ] } },
{ "type": "Feature", "properties": { "field_1": 108, "line": "02호선", "name_kr": "성수", "lat": 37.544581, "lng": 127.055961, "no": "211", "name_en": "Seongsu", "link-en": "https://en.wikipedia.org/wiki/Seongsu_station", "link-kr": "https://ko.wikipedia.org/wiki/성수역" }, "geometry": { "type": "Point", "coordinates": [ 127.055961, 37.544581 ] } },
{ "type": "Feature", "properties": { "field_1": 109, "line": "02호선", "name_kr": "용답", "lat": 37.561904, "lng": 127.050899, "no": "211-1", "name_en": "Yongdap", "link-en": "https://en.wikipedia.org/wiki/Yongdap_station", "link-kr": "https://ko.wikipedia.org/wiki/용답역" }, "geometry": { "type": "Point", "coordinates": [ 127.050899, 37.561904 ] } },
{ "type": "Feature", "properties": { "field_1": 110, "line": "02호선", "name_kr": "신답", "lat": 37.57004, "lng": 127.046481, "no": "211-2", "name_en": "Sindap", "link-en": "https://en.wikipedia.org/wiki/Sindap_station", "link-kr": "https://ko.wikipedia.org/wiki/신답역" }, "geometry": { "type": "Point", "coordinates": [ 127.046481, 37.57004 ] } },
{ "type": "Feature", "properties": { "field_1": 111, "line": "02호선", "name_kr": "용두", "lat": 37.574028, "lng": 127.038091, "no": "211-3", "name_en": "Yongdu", "link-en": "https://en.wikipedia.org/wiki/Yongdu_station", "link-kr": "https://ko.wikipedia.org/wiki/용두역" }, "geometry": { "type": "Point", "coordinates": [ 127.038091, 37.574028 ] } },
{ "type": "Feature", "properties": { "field_1": 113, "line": "02호선", "name_kr": "건대입구", "lat": 37.540693, "lng": 127.07023, "no": "212", "name_en": "Konkuk University", "link-en": "https://en.wikipedia.org/wiki/Konkuk_University_station", "link-kr": "https://ko.wikipedia.org/wiki/건대입구역" }, "geometry": { "type": "Point", "coordinates": [ 127.07023, 37.540693 ] } },
{ "type": "Feature", "properties": { "field_1": 114, "line": "02호선", "name_kr": "구의", "lat": 37.537077, "lng": 127.085916, "no": "213", "name_en": "Guui", "link-en": "https://en.wikipedia.org/wiki/Guui_station", "link-kr": "https://ko.wikipedia.org/wiki/구의역" }, "geometry": { "type": "Point", "coordinates": [ 127.085916, 37.537077 ] } },
{ "type": "Feature", "properties": { "field_1": 115, "line": "02호선", "name_kr": "강변", "lat": 37.535095, "lng": 127.094681, "no": "214", "name_en": "Gangbyeon", "link-en": "https://en.wikipedia.org/wiki/Gangbyeon_station", "link-kr": "https://ko.wikipedia.org/wiki/강변역" }, "geometry": { "type": "Point", "coordinates": [ 127.094681, 37.535095 ] } },
{ "type": "Feature", "properties": { "field_1": 116, "line": "02호선", "name_kr": "잠실나루", "lat": 37.520733, "lng": 127.10379, "no": "215", "name_en": "Jamsillaru", "link-en": "https://en.wikipedia.org/wiki/Jamsillaru_station", "link-kr": "https://ko.wikipedia.org/wiki/잠실나루역" }, "geometry": { "type": "Point", "coordinates": [ 127.10379, 37.520733 ] } },
{ "type": "Feature", "properties": { "field_1": 117, "line": "02호선", "name_kr": "잠실", "lat": 37.51395, "lng": 127.102234, "no": "216", "name_en": "Jamsil", "link-en": "https://en.wikipedia.org/wiki/Jamsil_station", "link-kr": "https://ko.wikipedia.org/wiki/잠실역" }, "geometry": { "type": "Point", "coordinates": [ 127.102234, 37.51395 ] } },
{ "type": "Feature", "properties": { "field_1": 118, "line": "02호선", "name_kr": "잠실새내", "lat": 37.511687, "lng": 127.086162, "no": "217", "name_en": "Jamsilsaenae", "link-en": "https://en.wikipedia.org/wiki/Jamsilsaenae_station", "link-kr": "https://ko.wikipedia.org/wiki/잠실새내역" }, "geometry": { "type": "Point", "coordinates": [ 127.086162, 37.511687 ] } },
{ "type": "Feature", "properties": { "field_1": 119, "line": "02호선", "name_kr": "종합운동장", "lat": 37.510997, "lng": 127.073642, "no": "218", "name_en": "Sports Complex", "link-en": "https://en.wikipedia.org/wiki/Sports_Complex_station", "link-kr": "https://ko.wikipedia.org/wiki/종합운동장역" }, "geometry": { "type": "Point", "coordinates": [ 127.073642, 37.510997 ] } },
{ "type": "Feature", "properties": { "field_1": 120, "line": "02호선", "name_kr": "삼성", "lat": 37.508844, "lng": 127.06316, "no": "219", "name_en": "Samseong", "link-en": "https://en.wikipedia.org/wiki/Samseong_station", "link-kr": "https://ko.wikipedia.org/wiki/삼성역" }, "geometry": { "type": "Point", "coordinates": [ 127.06316, 37.508844 ] } },
{ "type": "Feature", "properties": { "field_1": 121, "line": "02호선", "name_kr": "선릉", "lat": 37.504503, "lng": 127.049008, "no": "220", "name_en": "Seolleung", "link-en": "https://en.wikipedia.org/wiki/Seolleung_station", "link-kr": "https://ko.wikipedia.org/wiki/선릉역" }, "geometry": { "type": "Point", "coordinates": [ 127.049008, 37.504503 ] } },
{ "type": "Feature", "properties": { "field_1": 122, "line": "02호선", "name_kr": "역삼", "lat": 37.500622, "lng": 127.036456, "no": "221", "name_en": "Yeoksam", "link-en": "https://en.wikipedia.org/wiki/Yeoksam_station", "link-kr": "https://ko.wikipedia.org/wiki/역삼역" }, "geometry": { "type": "Point", "coordinates": [ 127.036456, 37.500622 ] } },
{ "type": "Feature", "properties": { "field_1": 123, "line": "02호선", "name_kr": "강남", "lat": 37.497175, "lng": 127.027926, "no": "222", "name_en": "Gangnam", "link-en": "https://en.wikipedia.org/wiki/Gangnam_station", "link-kr": "https://ko.wikipedia.org/wiki/강남역" }, "geometry": { "type": "Point", "coordinates": [ 127.027926, 37.497175 ] } },
{ "type": "Feature", "properties": { "field_1": 124, "line": "02호선", "name_kr": "교대", "lat": 37.493415, "lng": 127.01408, "no": "223", "name_en": "Seoul National University of Education", "link-en": "https://en.wikipedia.org/wiki/Seoul_National_University_of_Education_station", "link-kr": "https://ko.wikipedia.org/wiki/교대역" }, "geometry": { "type": "Point", "coordinates": [ 127.01408, 37.493415 ] } },
{ "type": "Feature", "properties": { "field_1": 125, "line": "02호선", "name_kr": "서초", "lat": 37.491897, "lng": 127.007917, "no": "224", "name_en": "Seocho", "link-en": "https://en.wikipedia.org/wiki/Seocho_station", "link-kr": "https://ko.wikipedia.org/wiki/서초역" }, "geometry": { "type": "Point", "coordinates": [ 127.007917, 37.491897 ] } },
{ "type": "Feature", "properties": { "field_1": 126, "line": "02호선", "name_kr": "방배", "lat": 37.481426, "lng": 126.997596, "no": "225", "name_en": "Bangbae", "link-en": "https://en.wikipedia.org/wiki/Bangbae_station", "link-kr": "https://ko.wikipedia.org/wiki/방배역" }, "geometry": { "type": "Point", "coordinates": [ 126.997596, 37.481426 ] } },
{ "type": "Feature", "properties": { "field_1": 127, "line": "02호선", "name_kr": "사당", "lat": 37.47653, "lng": 126.981685, "no": "226", "name_en": "Sadang", "link-en": "https://en.wikipedia.org/wiki/Sadang_station", "link-kr": "https://ko.wikipedia.org/wiki/사당역" }, "geometry": { "type": "Point", "coordinates": [ 126.981685, 37.47653 ] } },
{ "type": "Feature", "properties": { "field_1": 128, "line": "02호선", "name_kr": "낙성대", "lat": 37.47693, "lng": 126.963693, "no": "227", "name_en": "Nakseongdae", "link-en": "https://en.wikipedia.org/wiki/Nakseongdae_station", "link-kr": "https://ko.wikipedia.org/wiki/낙성대역" }, "geometry": { "type": "Point", "coordinates": [ 126.963693, 37.47693 ] } },
{ "type": "Feature", "properties": { "field_1": 129, "line": "02호선", "name_kr": "서울대입구", "lat": 37.481247, "lng": 126.952739, "no": "228", "name_en": "Seoul National University", "link-en": "https://en.wikipedia.org/wiki/Seoul_National_University_station", "link-kr": "https://ko.wikipedia.org/wiki/서울대입구역" }, "geometry": { "type": "Point", "coordinates": [ 126.952739, 37.481247 ] } },
{ "type": "Feature", "properties": { "field_1": 130, "line": "02호선", "name_kr": "봉천", "lat": 37.482362, "lng": 126.941892, "no": "229", "name_en": "Bongcheon", "link-en": "https://en.wikipedia.org/wiki/Bongcheon_station", "link-kr": "https://ko.wikipedia.org/wiki/봉천역" }, "geometry": { "type": "Point", "coordinates": [ 126.941892, 37.482362 ] } },
{ "type": "Feature", "properties": { "field_1": 131, "line": "02호선", "name_kr": "신림", "lat": 37.484201, "lng": 126.929715, "no": "230", "name_en": "Sillim", "link-en": "https://en.wikipedia.org/wiki/Sillim_station", "link-kr": "https://ko.wikipedia.org/wiki/신림역" }, "geometry": { "type": "Point", "coordinates": [ 126.929715, 37.484201 ] } },
{ "type": "Feature", "properties": { "field_1": 132, "line": "02호선", "name_kr": "신대방", "lat": 37.487462, "lng": 126.913149, "no": "231", "name_en": "Sindaebang", "link-en": "https://en.wikipedia.org/wiki/Sindaebang_station", "link-kr": "https://ko.wikipedia.org/wiki/신대방역" }, "geometry": { "type": "Point", "coordinates": [ 126.913149, 37.487462 ] } },
{ "type": "Feature", "properties": { "field_1": 133, "line": "02호선", "name_kr": "구로디지털단지", "lat": 37.485266, "lng": 126.901401, "no": "232", "name_en": "Guro Digital Complex", "link-en": "https://en.wikipedia.org/wiki/Guro_Digital_Complex_station", "link-kr": "https://ko.wikipedia.org/wiki/구로디지털단지역" }, "geometry": { "type": "Point", "coordinates": [ 126.901401, 37.485266 ] } },
{ "type": "Feature", "properties": { "field_1": 134, "line": "02호선", "name_kr": "대림", "lat": 37.49297, "lng": 126.895801, "no": "233", "name_en": "Daerim", "link-en": "https://en.wikipedia.org/wiki/Daerim_station", "link-kr": "https://ko.wikipedia.org/wiki/대림역" }, "geometry": { "type": "Point", "coordinates": [ 126.895801, 37.49297 ] } },
{ "type": "Feature", "properties": { "field_1": 136, "line": "02호선", "name_kr": "도림천", "lat": 37.514287, "lng": 126.882768, "no": "234-1", "name_en": "Dorimcheon", "link-en": "https://en.wikipedia.org/wiki/Dorimcheon_station", "link-kr": "https://ko.wikipedia.org/wiki/도림천역" }, "geometry": { "type": "Point", "coordinates": [ 126.882768, 37.514287 ] } },
{ "type": "Feature", "properties": { "field_1": 137, "line": "02호선", "name_kr": "양천구청", "lat": 37.512398, "lng": 126.865819, "no": "234-2", "name_en": "Yangcheon-gu Office", "link-en": "https://en.wikipedia.org/wiki/Yangcheon-gu_Office_station", "link-kr": "https://ko.wikipedia.org/wiki/양천구청역" }, "geometry": { "type": "Point", "coordinates": [ 126.865819, 37.512398 ] } },
{ "type": "Feature", "properties": { "field_1": 138, "line": "02호선", "name_kr": "신정네거리", "lat": 37.520074, "lng": 126.852912, "no": "234-3", "name_en": "Sinjeongnegeori", "link-en": "https://en.wikipedia.org/wiki/Sinjeongnegeori_station", "link-kr": "https://ko.wikipedia.org/wiki/신정네거리역" }, "geometry": { "type": "Point", "coordinates": [ 126.852912, 37.520074 ] } },
{ "type": "Feature", "properties": { "field_1": 139, "line": "02호선", "name_kr": "까치산", "lat": 37.531768, "lng": 126.846683, "no": "234-4", "name_en": "Kkachisan", "link-en": "https://en.wikipedia.org/wiki/Kkachisan_station", "link-kr": "https://ko.wikipedia.org/wiki/까치산역" }, "geometry": { "type": "Point", "coordinates": [ 126.846683, 37.531768 ] } },
{ "type": "Feature", "properties": { "field_1": 140, "line": "02호선", "name_kr": "문래", "lat": 37.517933, "lng": 126.89476, "no": "235", "name_en": "Mullae", "link-en": "https://en.wikipedia.org/wiki/Mullae_station", "link-kr": "https://ko.wikipedia.org/wiki/문래역" }, "geometry": { "type": "Point", "coordinates": [ 126.89476, 37.517933 ] } },
{ "type": "Feature", "properties": { "field_1": 141, "line": "02호선", "name_kr": "영등포구청", "lat": 37.52497, "lng": 126.895951, "no": "236", "name_en": "Yeongdeungpo-gu Office", "link-en": "https://en.wikipedia.org/wiki/Yeongdeungpo-gu_Office_station", "link-kr": "https://ko.wikipedia.org/wiki/영등포구청역" }, "geometry": { "type": "Point", "coordinates": [ 126.895951, 37.52497 ] } },
{ "type": "Feature", "properties": { "field_1": 142, "line": "02호선", "name_kr": "당산", "lat": 37.53438, "lng": 126.902281, "no": "237", "name_en": "Dangsan", "link-en": "https://en.wikipedia.org/wiki/Dangsan_station", "link-kr": "https://ko.wikipedia.org/wiki/당산역" }, "geometry": { "type": "Point", "coordinates": [ 126.902281, 37.53438 ] } },
{ "type": "Feature", "properties": { "field_1": 143, "line": "02호선", "name_kr": "합정", "lat": 37.549463, "lng": 126.913739, "no": "238", "name_en": "Hapjeong", "link-en": "https://en.wikipedia.org/wiki/Hapjeong_station", "link-kr": "https://ko.wikipedia.org/wiki/합정역" }, "geometry": { "type": "Point", "coordinates": [ 126.913739, 37.549463 ] } },
{ "type": "Feature", "properties": { "field_1": 144, "line": "02호선", "name_kr": "홍대입구", "lat": 37.557192, "lng": 126.925381, "no": "239", "name_en": "Hongik University", "link-en": "https://en.wikipedia.org/wiki/Hongik_University_station", "link-kr": "https://ko.wikipedia.org/wiki/홍대입구역" }, "geometry": { "type": "Point", "coordinates": [ 126.925381, 37.557192 ] } },
{ "type": "Feature", "properties": { "field_1": 145, "line": "02호선", "name_kr": "신촌", "lat": 37.555134, "lng": 126.936893, "no": "240", "name_en": "Sinchon", "link-en": "https://en.wikipedia.org/wiki/Sinchon_station", "link-kr": "https://ko.wikipedia.org/wiki/신촌역" }, "geometry": { "type": "Point", "coordinates": [ 126.936893, 37.555134 ] } },
{ "type": "Feature", "properties": { "field_1": 146, "line": "02호선", "name_kr": "이대", "lat": 37.556733, "lng": 126.946013, "no": "241", "name_en": "Ewha Womans University", "link-en": "https://en.wikipedia.org/wiki/Ewha_Womans_University_station", "link-kr": "https://ko.wikipedia.org/wiki/이대역" }, "geometry": { "type": "Point", "coordinates": [ 126.946013, 37.556733 ] } },
{ "type": "Feature", "properties": { "field_1": 147, "line": "02호선", "name_kr": "아현", "lat": 37.557345, "lng": 126.956141, "no": "242", "name_en": "Ahyeon", "link-en": "https://en.wikipedia.org/wiki/Ahyeon_station", "link-kr": "https://ko.wikipedia.org/wiki/아현역" }, "geometry": { "type": "Point", "coordinates": [ 126.956141, 37.557345 ] } },
{ "type": "Feature", "properties": { "field_1": 148, "line": "02호선", "name_kr": "충정로", "lat": 37.559973, "lng": 126.963672, "no": "243", "name_en": "Chungjeongno", "link-en": "https://en.wikipedia.org/wiki/Chungjeongno_station", "link-kr": "https://ko.wikipedia.org/wiki/충정로역" }, "geometry": { "type": "Point", "coordinates": [ 126.963672, 37.559973 ] } },
{ "type": "Feature", "properties": { "field_1": 149, "line": "03호선", "name_kr": "대화", "lat": 37.676087, "lng": 126.747569, "no": "309", "name_en": "Daehwa", "link-en": "https://en.wikipedia.org/wiki/Daehwa_station", "link-kr": "https://ko.wikipedia.org/wiki/대화역" }, "geometry": { "type": "Point", "coordinates": [ 126.747569, 37.676087 ] } },
{ "type": "Feature", "properties": { "field_1": 150, "line": "03호선", "name_kr": "주엽", "lat": 37.670072, "lng": 126.761334, "no": "310", "name_en": "Juyeop", "link-en": "https://en.wikipedia.org/wiki/Juyeop_station", "link-kr": "https://ko.wikipedia.org/wiki/주엽역" }, "geometry": { "type": "Point", "coordinates": [ 126.761334, 37.670072 ] } },
{ "type": "Feature", "properties": { "field_1": 151, "line": "03호선", "name_kr": "정발산", "lat": 37.659477, "lng": 126.773359, "no": "311", "name_en": "Jeongbalsan", "link-en": "https://en.wikipedia.org/wiki/Jeongbalsan_station", "link-kr": "https://ko.wikipedia.org/wiki/정발산역" }, "geometry": { "type": "Point", "coordinates": [ 126.773359, 37.659477 ] } },
{ "type": "Feature", "properties": { "field_1": 152, "line": "03호선", "name_kr": "마두", "lat": 37.652206, "lng": 126.77762, "no": "312", "name_en": "Madu", "link-en": "https://en.wikipedia.org/wiki/Madu_station", "link-kr": "https://ko.wikipedia.org/wiki/마두역" }, "geometry": { "type": "Point", "coordinates": [ 126.77762, 37.652206 ] } },
{ "type": "Feature", "properties": { "field_1": 153, "line": "03호선", "name_kr": "백석", "lat": 37.643114, "lng": 126.78787, "no": "313", "name_en": "Baekseok", "link-en": "https://en.wikipedia.org/wiki/Baekseok_station", "link-kr": "https://ko.wikipedia.org/wiki/백석역" }, "geometry": { "type": "Point", "coordinates": [ 126.78787, 37.643114 ] } },
{ "type": "Feature", "properties": { "field_1": 154, "line": "03호선", "name_kr": "대곡", "lat": 37.631626, "lng": 126.811024, "no": "314", "name_en": "Daegok", "link-en": "https://en.wikipedia.org/wiki/Daegok_station", "link-kr": "https://ko.wikipedia.org/wiki/대곡역" }, "geometry": { "type": "Point", "coordinates": [ 126.811024, 37.631626 ] } },
{ "type": "Feature", "properties": { "field_1": 155, "line": "03호선", "name_kr": "화정", "lat": 37.634592, "lng": 126.83265, "no": "315", "name_en": "Hwajeong", "link-en": "https://en.wikipedia.org/wiki/Hwajeong_station", "link-kr": "https://ko.wikipedia.org/wiki/화정역" }, "geometry": { "type": "Point", "coordinates": [ 126.83265, 37.634592 ] } },
{ "type": "Feature", "properties": { "field_1": 156, "line": "03호선", "name_kr": "원당", "lat": 37.653324, "lng": 126.843041, "no": "316", "name_en": "Wondang", "link-en": "https://en.wikipedia.org/wiki/Wondang_station", "link-kr": "https://ko.wikipedia.org/wiki/원당역" }, "geometry": { "type": "Point", "coordinates": [ 126.843041, 37.653324 ] } },
{ "type": "Feature", "properties": { "field_1": 157, "line": "03호선", "name_kr": "원흥", "lat": 37.650658, "lng": 126.872642, "no": "317", "name_en": "Wonheung", "link-en": "https://en.wikipedia.org/wiki/Wonheung_station", "link-kr": "https://ko.wikipedia.org/wiki/원흥역" }, "geometry": { "type": "Point", "coordinates": [ 126.872642, 37.650658 ] } },
{ "type": "Feature", "properties": { "field_1": 158, "line": "03호선", "name_kr": "삼송", "lat": 37.653083, "lng": 126.895558, "no": "318", "name_en": "Samsong", "link-en": "https://en.wikipedia.org/wiki/Samsong_station", "link-kr": "https://ko.wikipedia.org/wiki/삼송역" }, "geometry": { "type": "Point", "coordinates": [ 126.895558, 37.653083 ] } },
{ "type": "Feature", "properties": { "field_1": 159, "line": "03호선", "name_kr": "지축", "lat": 37.648048, "lng": 126.913951, "no": "319", "name_en": "Jichuk", "link-en": "https://en.wikipedia.org/wiki/Jichuk_station", "link-kr": "https://ko.wikipedia.org/wiki/지축역" }, "geometry": { "type": "Point", "coordinates": [ 126.913951, 37.648048 ] } },
{ "type": "Feature", "properties": { "field_1": 160, "line": "03호선", "name_kr": "구파발", "lat": 37.636763, "lng": 126.918821, "no": "320", "name_en": "Gupabal", "link-en": "https://en.wikipedia.org/wiki/Gupabal_station", "link-kr": "https://ko.wikipedia.org/wiki/구파발역" }, "geometry": { "type": "Point", "coordinates": [ 126.918821, 37.636763 ] } },
{ "type": "Feature", "properties": { "field_1": 161, "line": "03호선", "name_kr": "연신내", "lat": 37.619001, "lng": 126.921008, "no": "321", "name_en": "Yeonsinnae", "link-en": "https://en.wikipedia.org/wiki/Yeonsinnae_station", "link-kr": "https://ko.wikipedia.org/wiki/연신내역" }, "geometry": { "type": "Point", "coordinates": [ 126.921008, 37.619001 ] } },
{ "type": "Feature", "properties": { "field_1": 162, "line": "03호선", "name_kr": "불광", "lat": 37.610469, "lng": 126.929887, "no": "322", "name_en": "Bulgwang", "link-en": "https://en.wikipedia.org/wiki/Bulgwang_station", "link-kr": "https://ko.wikipedia.org/wiki/불광역" }, "geometry": { "type": "Point", "coordinates": [ 126.929887, 37.610469 ] } },
{ "type": "Feature", "properties": { "field_1": 163, "line": "03호선", "name_kr": "녹번", "lat": 37.600927, "lng": 126.935756, "no": "323", "name_en": "Nokbeon", "link-en": "https://en.wikipedia.org/wiki/Nokbeon_station", "link-kr": "https://ko.wikipedia.org/wiki/녹번역" }, "geometry": { "type": "Point", "coordinates": [ 126.935756, 37.600927 ] } },
{ "type": "Feature", "properties": { "field_1": 164, "line": "03호선", "name_kr": "홍제", "lat": 37.589066, "lng": 126.943736, "no": "324", "name_en": "Hongje", "link-en": "https://en.wikipedia.org/wiki/Hongje_station", "link-kr": "https://ko.wikipedia.org/wiki/홍제역" }, "geometry": { "type": "Point", "coordinates": [ 126.943736, 37.589066 ] } },
{ "type": "Feature", "properties": { "field_1": 165, "line": "03호선", "name_kr": "무악재", "lat": 37.582299, "lng": 126.950291, "no": "325", "name_en": "Muakjae", "link-en": "https://en.wikipedia.org/wiki/Muakjae_station", "link-kr": "https://ko.wikipedia.org/wiki/무악재역" }, "geometry": { "type": "Point", "coordinates": [ 126.950291, 37.582299 ] } },
{ "type": "Feature", "properties": { "field_1": 166, "line": "03호선", "name_kr": "독립문", "lat": 37.574571, "lng": 126.957748, "no": "326", "name_en": "Dongnimmun", "link-en": "https://en.wikipedia.org/wiki/Dongnimmun_station", "link-kr": "https://ko.wikipedia.org/wiki/독립문역" }, "geometry": { "type": "Point", "coordinates": [ 126.957748, 37.574571 ] } },
{ "type": "Feature", "properties": { "field_1": 167, "line": "03호선", "name_kr": "경복궁", "lat": 37.575762, "lng": 126.97353, "no": "327", "name_en": "Gyeongbokgung", "link-en": "https://en.wikipedia.org/wiki/Gyeongbokgung_station", "link-kr": "https://ko.wikipedia.org/wiki/경복궁역" }, "geometry": { "type": "Point", "coordinates": [ 126.97353, 37.575762 ] } },
{ "type": "Feature", "properties": { "field_1": 168, "line": "03호선", "name_kr": "안국", "lat": 37.576477, "lng": 126.985443, "no": "328", "name_en": "Anguk", "link-en": "https://en.wikipedia.org/wiki/Anguk_station", "link-kr": "https://ko.wikipedia.org/wiki/안국역" }, "geometry": { "type": "Point", "coordinates": [ 126.985443, 37.576477 ] } },
{ "type": "Feature", "properties": { "field_1": 171, "line": "03호선", "name_kr": "충무로", "lat": 37.561243, "lng": 126.99428, "no": "331", "name_en": "Chungmuro", "link-en": "https://en.wikipedia.org/wiki/Chungmuro_station", "link-kr": "https://ko.wikipedia.org/wiki/충무로역" }, "geometry": { "type": "Point", "coordinates": [ 126.99428, 37.561243 ] } },
{ "type": "Feature", "properties": { "field_1": 172, "line": "03호선", "name_kr": "동대입구", "lat": 37.559052, "lng": 127.005602, "no": "332", "name_en": "Dongguk University", "link-en": "https://en.wikipedia.org/wiki/Dongguk_University_station", "link-kr": "https://ko.wikipedia.org/wiki/동대입구역" }, "geometry": { "type": "Point", "coordinates": [ 127.005602, 37.559052 ] } },
{ "type": "Feature", "properties": { "field_1": 173, "line": "03호선", "name_kr": "약수", "lat": 37.55434, "lng": 127.010655, "no": "333", "name_en": "Yaksu", "link-en": "https://en.wikipedia.org/wiki/Yaksu_station", "link-kr": "https://ko.wikipedia.org/wiki/약수역" }, "geometry": { "type": "Point", "coordinates": [ 127.010655, 37.55434 ] } },
{ "type": "Feature", "properties": { "field_1": 174, "line": "03호선", "name_kr": "금호", "lat": 37.548034, "lng": 127.015872, "no": "334", "name_en": "Geumho", "link-en": "https://en.wikipedia.org/wiki/Geumho_station", "link-kr": "https://ko.wikipedia.org/wiki/금호역" }, "geometry": { "type": "Point", "coordinates": [ 127.015872, 37.548034 ] } },
{ "type": "Feature", "properties": { "field_1": 175, "line": "03호선", "name_kr": "옥수", "lat": 37.540685, "lng": 127.017965, "no": "335", "name_en": "Oksu", "link-en": "https://en.wikipedia.org/wiki/Oksu_station", "link-kr": "https://ko.wikipedia.org/wiki/옥수역" }, "geometry": { "type": "Point", "coordinates": [ 127.017965, 37.540685 ] } },
{ "type": "Feature", "properties": { "field_1": 176, "line": "03호선", "name_kr": "압구정", "lat": 37.527072, "lng": 127.028461, "no": "336", "name_en": "Apgujeong", "link-en": "https://en.wikipedia.org/wiki/Apgujeong_station", "link-kr": "https://ko.wikipedia.org/wiki/압구정역" }, "geometry": { "type": "Point", "coordinates": [ 127.028461, 37.527072 ] } },
{ "type": "Feature", "properties": { "field_1": 177, "line": "03호선", "name_kr": "신사", "lat": 37.516334, "lng": 127.020114, "no": "337", "name_en": "Sinsa", "link-en": "https://en.wikipedia.org/wiki/Sinsa_station", "link-kr": "https://ko.wikipedia.org/wiki/신사역" }, "geometry": { "type": "Point", "coordinates": [ 127.020114, 37.516334 ] } },
{ "type": "Feature", "properties": { "field_1": 178, "line": "03호선", "name_kr": "잠원", "lat": 37.512759, "lng": 127.01122, "no": "338", "name_en": "Jamwon", "link-en": "https://en.wikipedia.org/wiki/Jamwon_station", "link-kr": "https://ko.wikipedia.org/wiki/잠원역" }, "geometry": { "type": "Point", "coordinates": [ 127.01122, 37.512759 ] } },
{ "type": "Feature", "properties": { "field_1": 179, "line": "03호선", "name_kr": "고속터미널", "lat": 37.50481, "lng": 127.004943, "no": "339", "name_en": "Express Bus Terminal", "link-en": "https://en.wikipedia.org/wiki/Express_Bus_Terminal_station", "link-kr": "https://ko.wikipedia.org/wiki/고속터미널역" }, "geometry": { "type": "Point", "coordinates": [ 127.004943, 37.50481 ] } },
{ "type": "Feature", "properties": { "field_1": 181, "line": "03호선", "name_kr": "남부터미널", "lat": 37.485013, "lng": 127.016189, "no": "341", "name_en": "Nambu Bus Terminal", "link-en": "https://en.wikipedia.org/wiki/Nambu_Bus_Terminal_station", "link-kr": "https://ko.wikipedia.org/wiki/남부터미널역" }, "geometry": { "type": "Point", "coordinates": [ 127.016189, 37.485013 ] } },
{ "type": "Feature", "properties": { "field_1": 182, "line": "03호선", "name_kr": "양재", "lat": 37.484147, "lng": 127.034631, "no": "342", "name_en": "Yangjae", "link-en": "https://en.wikipedia.org/wiki/Yangjae_station", "link-kr": "https://ko.wikipedia.org/wiki/양재역" }, "geometry": { "type": "Point", "coordinates": [ 127.034631, 37.484147 ] } },
{ "type": "Feature", "properties": { "field_1": 183, "line": "03호선", "name_kr": "매봉", "lat": 37.486947, "lng": 127.046769, "no": "343", "name_en": "Maebong", "link-en": "https://en.wikipedia.org/wiki/Maebong_station", "link-kr": "https://ko.wikipedia.org/wiki/매봉역" }, "geometry": { "type": "Point", "coordinates": [ 127.046769, 37.486947 ] } },
{ "type": "Feature", "properties": { "field_1": 184, "line": "03호선", "name_kr": "도곡", "lat": 37.490858, "lng": 127.055381, "no": "344", "name_en": "Dogok", "link-en": "https://en.wikipedia.org/wiki/Dogok_station", "link-kr": "https://ko.wikipedia.org/wiki/도곡역" }, "geometry": { "type": "Point", "coordinates": [ 127.055381, 37.490858 ] } },
{ "type": "Feature", "properties": { "field_1": 185, "line": "03호선", "name_kr": "대치", "lat": 37.494612, "lng": 127.063642, "no": "345", "name_en": "Daechi", "link-en": "https://en.wikipedia.org/wiki/Daechi_station", "link-kr": "https://ko.wikipedia.org/wiki/대치역" }, "geometry": { "type": "Point", "coordinates": [ 127.063642, 37.494612 ] } },
{ "type": "Feature", "properties": { "field_1": 186, "line": "03호선", "name_kr": "학여울", "lat": 37.496663, "lng": 127.070594, "no": "346", "name_en": "Hangnyeoul", "link-en": "https://en.wikipedia.org/wiki/Hangnyeoul_station", "link-kr": "https://ko.wikipedia.org/wiki/학여울역" }, "geometry": { "type": "Point", "coordinates": [ 127.070594, 37.496663 ] } },
{ "type": "Feature", "properties": { "field_1": 187, "line": "03호선", "name_kr": "대청", "lat": 37.493514, "lng": 127.079532, "no": "347", "name_en": "Daecheong", "link-en": "https://en.wikipedia.org/wiki/Daecheong_station", "link-kr": "https://ko.wikipedia.org/wiki/대청역" }, "geometry": { "type": "Point", "coordinates": [ 127.079532, 37.493514 ] } },
{ "type": "Feature", "properties": { "field_1": 188, "line": "03호선", "name_kr": "일원", "lat": 37.483681, "lng": 127.08439, "no": "348", "name_en": "Irwon", "link-en": "https://en.wikipedia.org/wiki/Irwon_station", "link-kr": "https://ko.wikipedia.org/wiki/일원역" }, "geometry": { "type": "Point", "coordinates": [ 127.08439, 37.483681 ] } },
{ "type": "Feature", "properties": { "field_1": 189, "line": "03호선", "name_kr": "수서", "lat": 37.487371, "lng": 127.10188, "no": "349", "name_en": "Suseo", "link-en": "https://en.wikipedia.org/wiki/Suseo_station", "link-kr": "https://ko.wikipedia.org/wiki/수서역" }, "geometry": { "type": "Point", "coordinates": [ 127.10188, 37.487371 ] } },
{ "type": "Feature", "properties": { "field_1": 190, "line": "03호선", "name_kr": "가락시장", "lat": 37.492522, "lng": 127.118234, "no": "350", "name_en": "Garak Market", "link-en": "https://en.wikipedia.org/wiki/Garak_Market_station", "link-kr": "https://ko.wikipedia.org/wiki/가락시장역" }, "geometry": { "type": "Point", "coordinates": [ 127.118234, 37.492522 ] } },
{ "type": "Feature", "properties": { "field_1": 191, "line": "03호선", "name_kr": "경찰병원", "lat": 37.495918, "lng": 127.12454, "no": "351", "name_en": "National Police Hospital", "link-en": "https://en.wikipedia.org/wiki/National_Police_Hospital_station", "link-kr": "https://ko.wikipedia.org/wiki/경찰병원역" }, "geometry": { "type": "Point", "coordinates": [ 127.12454, 37.495918 ] } },
{ "type": "Feature", "properties": { "field_1": 192, "line": "03호선", "name_kr": "오금", "lat": 37.502162, "lng": 127.128111, "no": "352", "name_en": "Ogeum", "link-en": "https://en.wikipedia.org/wiki/Ogeum_station", "link-kr": "https://ko.wikipedia.org/wiki/오금역" }, "geometry": { "type": "Point", "coordinates": [ 127.128111, 37.502162 ] } },
{ "type": "Feature", "properties": { "field_1": 193, "line": "04호선", "name_kr": "당고개", "lat": 37.670272, "lng": 127.079066, "no": "409", "name_en": "Danggogae", "link-en": "https://en.wikipedia.org/wiki/Danggogae_station", "link-kr": "https://ko.wikipedia.org/wiki/당고개역" }, "geometry": { "type": "Point", "coordinates": [ 127.079066, 37.670272 ] } },
{ "type": "Feature", "properties": { "field_1": 194, "line": "04호선", "name_kr": "상계", "lat": 37.660878, "lng": 127.073572, "no": "410", "name_en": "Sanggye", "link-en": "https://en.wikipedia.org/wiki/Sanggye_station", "link-kr": "https://ko.wikipedia.org/wiki/상계역" }, "geometry": { "type": "Point", "coordinates": [ 127.073572, 37.660878 ] } },
{ "type": "Feature", "properties": { "field_1": 195, "line": "04호선", "name_kr": "노원", "lat": 37.655128, "lng": 127.061368, "no": "411", "name_en": "Nowon", "link-en": "https://en.wikipedia.org/wiki/Nowon_station", "link-kr": "https://ko.wikipedia.org/wiki/노원역" }, "geometry": { "type": "Point", "coordinates": [ 127.061368, 37.655128 ] } },
{ "type": "Feature", "properties": { "field_1": 197, "line": "04호선", "name_kr": "쌍문", "lat": 37.648627, "lng": 127.034709, "no": "413", "name_en": "Ssangmun", "link-en": "https://en.wikipedia.org/wiki/Ssangmun_station", "link-kr": "https://ko.wikipedia.org/wiki/쌍문역" }, "geometry": { "type": "Point", "coordinates": [ 127.034709, 37.648627 ] } },
{ "type": "Feature", "properties": { "field_1": 198, "line": "04호선", "name_kr": "수유", "lat": 37.638052, "lng": 127.025732, "no": "414", "name_en": "Suyu", "link-en": "https://en.wikipedia.org/wiki/Suyu_station", "link-kr": "https://ko.wikipedia.org/wiki/수유역" }, "geometry": { "type": "Point", "coordinates": [ 127.025732, 37.638052 ] } },
{ "type": "Feature", "properties": { "field_1": 199, "line": "04호선", "name_kr": "미아", "lat": 37.62667, "lng": 127.025983, "no": "415", "name_en": "Mia", "link-en": "https://en.wikipedia.org/wiki/Mia_station", "link-kr": "https://ko.wikipedia.org/wiki/미아역" }, "geometry": { "type": "Point", "coordinates": [ 127.025983, 37.62667 ] } },
{ "type": "Feature", "properties": { "field_1": 200, "line": "04호선", "name_kr": "미아사거리", "lat": 37.613292, "lng": 127.030053, "no": "416", "name_en": "Miasageori", "link-en": "https://en.wikipedia.org/wiki/Miasageori_station", "link-kr": "https://ko.wikipedia.org/wiki/미아사거리역" }, "geometry": { "type": "Point", "coordinates": [ 127.030053, 37.613292 ] } },
{ "type": "Feature", "properties": { "field_1": 201, "line": "04호선", "name_kr": "길음", "lat": 37.603407, "lng": 127.025053, "no": "417", "name_en": "Gireum", "link-en": "https://en.wikipedia.org/wiki/Gireum_station", "link-kr": "https://ko.wikipedia.org/wiki/길음역" }, "geometry": { "type": "Point", "coordinates": [ 127.025053, 37.603407 ] } },
{ "type": "Feature", "properties": { "field_1": 202, "line": "04호선", "name_kr": "성신여대입구", "lat": 37.592624, "lng": 127.016403, "no": "418", "name_en": "Sungshin Women's University", "link-en": "https://en.wikipedia.org/wiki/Sungshin_Women%27s_University_station", "link-kr": "https://ko.wikipedia.org/wiki/성신여대입구역" }, "geometry": { "type": "Point", "coordinates": [ 127.016403, 37.592624 ] } },
{ "type": "Feature", "properties": { "field_1": 203, "line": "04호선", "name_kr": "한성대입구", "lat": 37.588458, "lng": 127.006221, "no": "419", "name_en": "Hansung University", "link-en": "https://en.wikipedia.org/wiki/Hansung_University_station", "link-kr": "https://ko.wikipedia.org/wiki/한성대입구역" }, "geometry": { "type": "Point", "coordinates": [ 127.006221, 37.588458 ] } },
{ "type": "Feature", "properties": { "field_1": 204, "line": "04호선", "name_kr": "혜화", "lat": 37.582336, "lng": 127.001844, "no": "420", "name_en": "Hyehwa", "link-en": "https://en.wikipedia.org/wiki/Hyehwa_station", "link-kr": "https://ko.wikipedia.org/wiki/혜화역" }, "geometry": { "type": "Point", "coordinates": [ 127.001844, 37.582336 ] } },
{ "type": "Feature", "properties": { "field_1": 208, "line": "04호선", "name_kr": "명동", "lat": 37.560989, "lng": 126.986325, "no": "424", "name_en": "Myeong-dong", "link-en": "https://en.wikipedia.org/wiki/Myeong-dong_station", "link-kr": "https://ko.wikipedia.org/wiki/명동역" }, "geometry": { "type": "Point", "coordinates": [ 126.986325, 37.560989 ] } },
{ "type": "Feature", "properties": { "field_1": 209, "line": "04호선", "name_kr": "회현", "lat": 37.558514, "lng": 126.978246, "no": "425", "name_en": "Hoehyeon", "link-en": "https://en.wikipedia.org/wiki/Hoehyeon_station", "link-kr": "https://ko.wikipedia.org/wiki/회현역" }, "geometry": { "type": "Point", "coordinates": [ 126.978246, 37.558514 ] } },
{ "type": "Feature", "properties": { "field_1": 211, "line": "04호선", "name_kr": "숙대입구", "lat": 37.54456, "lng": 126.972106, "no": "427", "name_en": "Sookmyung Women's University", "link-en": "https://en.wikipedia.org/wiki/Sookmyung_Women%27s_University_station", "link-kr": "https://ko.wikipedia.org/wiki/숙대입구역" }, "geometry": { "type": "Point", "coordinates": [ 126.972106, 37.54456 ] } },
{ "type": "Feature", "properties": { "field_1": 212, "line": "04호선", "name_kr": "삼각지", "lat": 37.534777, "lng": 126.97311, "no": "428", "name_en": "Samgakji", "link-en": "https://en.wikipedia.org/wiki/Samgakji_station", "link-kr": "https://ko.wikipedia.org/wiki/삼각지역" }, "geometry": { "type": "Point", "coordinates": [ 126.97311, 37.534777 ] } },
{ "type": "Feature", "properties": { "field_1": 213, "line": "04호선", "name_kr": "신용산", "lat": 37.52917, "lng": 126.967894, "no": "429", "name_en": "Sinyongsan", "link-en": "https://en.wikipedia.org/wiki/Sinyongsan_station", "link-kr": "https://ko.wikipedia.org/wiki/신용산역" }, "geometry": { "type": "Point", "coordinates": [ 126.967894, 37.52917 ] } },
{ "type": "Feature", "properties": { "field_1": 214, "line": "04호선", "name_kr": "이촌", "lat": 37.522272, "lng": 126.974345, "no": "430", "name_en": "Ichon", "link-en": "https://en.wikipedia.org/wiki/Ichon_station", "link-kr": "https://ko.wikipedia.org/wiki/이촌역" }, "geometry": { "type": "Point", "coordinates": [ 126.974345, 37.522272 ] } },
{ "type": "Feature", "properties": { "field_1": 215, "line": "04호선", "name_kr": "동작", "lat": 37.502971, "lng": 126.979306, "no": "431", "name_en": "Dongjak", "link-en": "https://en.wikipedia.org/wiki/Dongjak_station", "link-kr": "https://ko.wikipedia.org/wiki/동작역" }, "geometry": { "type": "Point", "coordinates": [ 126.979306, 37.502971 ] } },
{ "type": "Feature", "properties": { "field_1": 216, "line": "04호선", "name_kr": "총신대입구(이수)", "lat": 37.486263, "lng": 126.981989, "no": "432", "name_en": "Isu", "link-en": "https://en.wikipedia.org/wiki/Isu_station", "link-kr": "https://ko.wikipedia.org/wiki/총신대입구(이수)역" }, "geometry": { "type": "Point", "coordinates": [ 126.981989, 37.486263 ] } },
{ "type": "Feature", "properties": { "field_1": 218, "line": "04호선", "name_kr": "남태령", "lat": 37.463873, "lng": 126.989134, "no": "434", "name_en": "Namtaeryeong", "link-en": "https://en.wikipedia.org/wiki/Namtaeryeong_station", "link-kr": "https://ko.wikipedia.org/wiki/남태령역" }, "geometry": { "type": "Point", "coordinates": [ 126.989134, 37.463873 ] } },
{ "type": "Feature", "properties": { "field_1": 219, "line": "04호선", "name_kr": "선바위", "lat": 37.451673, "lng": 127.002303, "no": "435", "name_en": "Seonbawi", "link-en": "https://en.wikipedia.org/wiki/Seonbawi_station", "link-kr": "https://ko.wikipedia.org/wiki/선바위역" }, "geometry": { "type": "Point", "coordinates": [ 127.002303, 37.451673 ] } },
{ "type": "Feature", "properties": { "field_1": 220, "line": "04호선", "name_kr": "경마공원", "lat": 37.443885, "lng": 127.007888, "no": "436", "name_en": "Seoul Racecourse Park", "link-en": "https://en.wikipedia.org/wiki/Seoul_Racecourse_Park_station", "link-kr": "https://ko.wikipedia.org/wiki/경마공원역" }, "geometry": { "type": "Point", "coordinates": [ 127.007888, 37.443885 ] } },
{ "type": "Feature", "properties": { "field_1": 221, "line": "04호선", "name_kr": "대공원", "lat": 37.435675, "lng": 127.006523, "no": "437", "name_en": "Seoul Grand Park", "link-en": "https://en.wikipedia.org/wiki/Seoul_Grand_Park_station", "link-kr": "https://ko.wikipedia.org/wiki/대공원역" }, "geometry": { "type": "Point", "coordinates": [ 127.006523, 37.435675 ] } },
{ "type": "Feature", "properties": { "field_1": 222, "line": "04호선", "name_kr": "과천", "lat": 37.433021, "lng": 126.996568, "no": "438", "name_en": "Gwacheon", "link-en": "https://en.wikipedia.org/wiki/Gwacheon_station", "link-kr": "https://ko.wikipedia.org/wiki/과천역" }, "geometry": { "type": "Point", "coordinates": [ 126.996568, 37.433021 ] } },
{ "type": "Feature", "properties": { "field_1": 223, "line": "04호선", "name_kr": "정부과천청사", "lat": 37.426513, "lng": 126.98978, "no": "439", "name_en": "Government Complex Gwacheon", "link-en": "https://en.wikipedia.org/wiki/Government_Complex_Gwacheon_station", "link-kr": "https://ko.wikipedia.org/wiki/정부과천청사역" }, "geometry": { "type": "Point", "coordinates": [ 126.98978, 37.426513 ] } },
{ "type": "Feature", "properties": { "field_1": 224, "line": "04호선", "name_kr": "인덕원", "lat": 37.401553, "lng": 126.976715, "no": "440", "name_en": "Indeogwon", "link-en": "https://en.wikipedia.org/wiki/Indeogwon_station", "link-kr": "https://ko.wikipedia.org/wiki/인덕원역" }, "geometry": { "type": "Point", "coordinates": [ 126.976715, 37.401553 ] } },
{ "type": "Feature", "properties": { "field_1": 225, "line": "04호선", "name_kr": "평촌", "lat": 37.394287, "lng": 126.963883, "no": "441", "name_en": "Pyeongchon", "link-en": "https://en.wikipedia.org/wiki/Pyeongchon_station", "link-kr": "https://ko.wikipedia.org/wiki/평촌역" }, "geometry": { "type": "Point", "coordinates": [ 126.963883, 37.394287 ] } },
{ "type": "Feature", "properties": { "field_1": 226, "line": "04호선", "name_kr": "범계", "lat": 37.389793, "lng": 126.950806, "no": "442", "name_en": "Beomgye", "link-en": "https://en.wikipedia.org/wiki/Beomgye_station", "link-kr": "https://ko.wikipedia.org/wiki/범계역" }, "geometry": { "type": "Point", "coordinates": [ 126.950806, 37.389793 ] } },
{ "type": "Feature", "properties": { "field_1": 228, "line": "04호선", "name_kr": "산본", "lat": 37.358101, "lng": 126.933274, "no": "444", "name_en": "Sanbon", "link-en": "https://en.wikipedia.org/wiki/Sanbon_station", "link-kr": "https://ko.wikipedia.org/wiki/산본역" }, "geometry": { "type": "Point", "coordinates": [ 126.933274, 37.358101 ] } },
{ "type": "Feature", "properties": { "field_1": 229, "line": "04호선", "name_kr": "수리산", "lat": 37.349801, "lng": 126.925365, "no": "445", "name_en": "Surisan", "link-en": "https://en.wikipedia.org/wiki/Surisan_station", "link-kr": "https://ko.wikipedia.org/wiki/수리산역" }, "geometry": { "type": "Point", "coordinates": [ 126.925365, 37.349801 ] } },
{ "type": "Feature", "properties": { "field_1": 230, "line": "04호선", "name_kr": "대야미", "lat": 37.328467, "lng": 126.917332, "no": "446", "name_en": "Daeyami", "link-en": "https://en.wikipedia.org/wiki/Daeyami_station", "link-kr": "https://ko.wikipedia.org/wiki/대야미역" }, "geometry": { "type": "Point", "coordinates": [ 126.917332, 37.328467 ] } },
{ "type": "Feature", "properties": { "field_1": 231, "line": "04호선", "name_kr": "반월", "lat": 37.312212, "lng": 126.903524, "no": "447", "name_en": "Banwol", "link-en": "https://en.wikipedia.org/wiki/Banwol_station", "link-kr": "https://ko.wikipedia.org/wiki/반월역" }, "geometry": { "type": "Point", "coordinates": [ 126.903524, 37.312212 ] } },
{ "type": "Feature", "properties": { "field_1": 232, "line": "04호선", "name_kr": "상록수", "lat": 37.302795, "lng": 126.866489, "no": "448", "name_en": "Sangnoksu", "link-en": "https://en.wikipedia.org/wiki/Sangnoksu_station", "link-kr": "https://ko.wikipedia.org/wiki/상록수역" }, "geometry": { "type": "Point", "coordinates": [ 126.866489, 37.302795 ] } },
{ "type": "Feature", "properties": { "field_1": 233, "line": "04호선", "name_kr": "한대앞", "lat": 37.309689, "lng": 126.85344, "no": "449", "name_en": "Hanyang University at Ansan", "link-en": "https://en.wikipedia.org/wiki/Hanyang_University_at_Ansan_station", "link-kr": "https://ko.wikipedia.org/wiki/한대앞역" }, "geometry": { "type": "Point", "coordinates": [ 126.85344, 37.309689 ] } },
{ "type": "Feature", "properties": { "field_1": 234, "line": "04호선", "name_kr": "중앙", "lat": 37.315941, "lng": 126.838573, "no": "450", "name_en": "Jungang (Ansan)", "link-en": "https://en.wikipedia.org/wiki/Jungang_station_(Ansan)", "link-kr": "https://ko.wikipedia.org/wiki/%EC%A4%91%EC%95%99%EC%97%AD_(%EC%95%88%EC%82%B0)" }, "geometry": { "type": "Point", "coordinates": [ 126.838573, 37.315941 ] } },
{ "type": "Feature", "properties": { "field_1": 235, "line": "04호선", "name_kr": "고잔", "lat": 37.316777, "lng": 126.823249, "no": "451", "name_en": "Gojan", "link-en": "https://en.wikipedia.org/wiki/Gojan_station", "link-kr": "https://ko.wikipedia.org/wiki/고잔역" }, "geometry": { "type": "Point", "coordinates": [ 126.823249, 37.316777 ] } },
{ "type": "Feature", "properties": { "field_1": 236, "line": "04호선", "name_kr": "초지", "lat": 37.320646, "lng": 126.805913, "no": "452", "name_en": "Choji", "link-en": "https://en.wikipedia.org/wiki/Choji_station", "link-kr": "https://ko.wikipedia.org/wiki/초지역" }, "geometry": { "type": "Point", "coordinates": [ 126.805913, 37.320646 ] } },
{ "type": "Feature", "properties": { "field_1": 237, "line": "04호선", "name_kr": "안산", "lat": 37.327082, "lng": 126.788532, "no": "453", "name_en": "Ansan", "link-en": "https://en.wikipedia.org/wiki/Ansan_station", "link-kr": "https://ko.wikipedia.org/wiki/안산역" }, "geometry": { "type": "Point", "coordinates": [ 126.788532, 37.327082 ] } },
{ "type": "Feature", "properties": { "field_1": 238, "line": "04호선", "name_kr": "신길온천", "lat": 37.338212, "lng": 126.765844, "no": "454", "name_en": "Singiloncheon", "link-en": "https://en.wikipedia.org/wiki/Singiloncheon_station", "link-kr": "https://ko.wikipedia.org/wiki/신길온천역" }, "geometry": { "type": "Point", "coordinates": [ 126.765844, 37.338212 ] } },
{ "type": "Feature", "properties": { "field_1": 239, "line": "04호선", "name_kr": "정왕", "lat": 37.351735, "lng": 126.742989, "no": "455", "name_en": "Jeongwang", "link-en": "https://en.wikipedia.org/wiki/Jeongwang_station", "link-kr": "https://ko.wikipedia.org/wiki/정왕역" }, "geometry": { "type": "Point", "coordinates": [ 126.742989, 37.351735 ] } },
{ "type": "Feature", "properties": { "field_1": 240, "line": "04호선", "name_kr": "오이도", "lat": 37.362357, "lng": 126.738714, "no": "456", "name_en": "Oido", "link-en": "https://en.wikipedia.org/wiki/Oido_station", "link-kr": "https://ko.wikipedia.org/wiki/오이도역" }, "geometry": { "type": "Point", "coordinates": [ 126.738714, 37.362357 ] } },
{ "type": "Feature", "properties": { "field_1": 241, "line": "05호선", "name_kr": "방화", "lat": 37.577446, "lng": 126.812741, "no": "510", "name_en": "Banghwa", "link-en": "https://en.wikipedia.org/wiki/Banghwa_station", "link-kr": "https://ko.wikipedia.org/wiki/방화역" }, "geometry": { "type": "Point", "coordinates": [ 126.812741, 37.577446 ] } },
{ "type": "Feature", "properties": { "field_1": 242, "line": "05호선", "name_kr": "개화산", "lat": 37.572399, "lng": 126.806171, "no": "511", "name_en": "Gaehwasan", "link-en": "https://en.wikipedia.org/wiki/Gaehwasan_station", "link-kr": "https://ko.wikipedia.org/wiki/개화산역" }, "geometry": { "type": "Point", "coordinates": [ 126.806171, 37.572399 ] } },
{ "type": "Feature", "properties": { "field_1": 243, "line": "05호선", "name_kr": "김포공항", "lat": 37.562434, "lng": 126.801058, "no": "512", "name_en": "Gimpo International Airport", "link-en": "https://en.wikipedia.org/wiki/Gimpo_International_Airport_station", "link-kr": "https://ko.wikipedia.org/wiki/김포공항역" }, "geometry": { "type": "Point", "coordinates": [ 126.801058, 37.562434 ] } },
{ "type": "Feature", "properties": { "field_1": 244, "line": "05호선", "name_kr": "송정", "lat": 37.561184, "lng": 126.811973, "no": "513", "name_en": "Songjeong", "link-en": "https://en.wikipedia.org/wiki/Songjeong_station", "link-kr": "https://ko.wikipedia.org/wiki/송정역" }, "geometry": { "type": "Point", "coordinates": [ 126.811973, 37.561184 ] } },
{ "type": "Feature", "properties": { "field_1": 245, "line": "05호선", "name_kr": "마곡", "lat": 37.560183, "lng": 126.825448, "no": "514", "name_en": "Magok", "link-en": "https://en.wikipedia.org/wiki/Magok_station", "link-kr": "https://ko.wikipedia.org/wiki/마곡역" }, "geometry": { "type": "Point", "coordinates": [ 126.825448, 37.560183 ] } },
{ "type": "Feature", "properties": { "field_1": 246, "line": "05호선", "name_kr": "발산", "lat": 37.558598, "lng": 126.837668, "no": "515", "name_en": "Balsan", "link-en": "https://en.wikipedia.org/wiki/Balsan_station", "link-kr": "https://ko.wikipedia.org/wiki/발산역" }, "geometry": { "type": "Point", "coordinates": [ 126.837668, 37.558598 ] } },
{ "type": "Feature", "properties": { "field_1": 247, "line": "05호선", "name_kr": "우장산", "lat": 37.548768, "lng": 126.836318, "no": "516", "name_en": "Ujangsan", "link-en": "https://en.wikipedia.org/wiki/Ujangsan_station", "link-kr": "https://ko.wikipedia.org/wiki/우장산역" }, "geometry": { "type": "Point", "coordinates": [ 126.836318, 37.548768 ] } },
{ "type": "Feature", "properties": { "field_1": 248, "line": "05호선", "name_kr": "화곡", "lat": 37.541513, "lng": 126.840461, "no": "517", "name_en": "Hwagok", "link-en": "https://en.wikipedia.org/wiki/Hwagok_station", "link-kr": "https://ko.wikipedia.org/wiki/화곡역" }, "geometry": { "type": "Point", "coordinates": [ 126.840461, 37.541513 ] } },
{ "type": "Feature", "properties": { "field_1": 250, "line": "05호선", "name_kr": "신정", "lat": 37.524997, "lng": 126.856191, "no": "519", "name_en": "Sinjeong", "link-en": "https://en.wikipedia.org/wiki/Sinjeong_station", "link-kr": "https://ko.wikipedia.org/wiki/신정역" }, "geometry": { "type": "Point", "coordinates": [ 126.856191, 37.524997 ] } },
{ "type": "Feature", "properties": { "field_1": 251, "line": "05호선", "name_kr": "목동", "lat": 37.526065, "lng": 126.864931, "no": "520", "name_en": "Mok-dong", "link-en": "https://en.wikipedia.org/wiki/Mok-dong_station", "link-kr": "https://ko.wikipedia.org/wiki/목동역" }, "geometry": { "type": "Point", "coordinates": [ 126.864931, 37.526065 ] } },
{ "type": "Feature", "properties": { "field_1": 252, "line": "05호선", "name_kr": "오목교", "lat": 37.524496, "lng": 126.875181, "no": "521", "name_en": "Omokgyo", "link-en": "https://en.wikipedia.org/wiki/Omokgyo_station", "link-kr": "https://ko.wikipedia.org/wiki/오목교역" }, "geometry": { "type": "Point", "coordinates": [ 126.875181, 37.524496 ] } },
{ "type": "Feature", "properties": { "field_1": 253, "line": "05호선", "name_kr": "양평(5호선)", "lat": 37.525583, "lng": 126.886176, "no": "522", "name_en": "Yangpyeong (Seoul Line 5)", "link-en": "https://en.wikipedia.org/wiki/Yangpyeong_station_(Seoul)", "link-kr": "https://ko.wikipedia.org/wiki/양평(5호선)역" }, "geometry": { "type": "Point", "coordinates": [ 126.886176, 37.525583 ] } },
{ "type": "Feature", "properties": { "field_1": 255, "line": "05호선", "name_kr": "영등포시장", "lat": 37.522669, "lng": 126.905139, "no": "524", "name_en": "Yeongdeungpo Market", "link-en": "https://en.wikipedia.org/wiki/Yeongdeungpo_Market_station", "link-kr": "https://ko.wikipedia.org/wiki/영등포시장역" }, "geometry": { "type": "Point", "coordinates": [ 126.905139, 37.522669 ] } },
{ "type": "Feature", "properties": { "field_1": 257, "line": "05호선", "name_kr": "여의도", "lat": 37.521624, "lng": 126.924191, "no": "526", "name_en": "Yeouido", "link-en": "https://en.wikipedia.org/wiki/Yeouido_station", "link-kr": "https://ko.wikipedia.org/wiki/여의도역" }, "geometry": { "type": "Point", "coordinates": [ 126.924191, 37.521624 ] } },
{ "type": "Feature", "properties": { "field_1": 258, "line": "05호선", "name_kr": "여의나루", "lat": 37.527098, "lng": 126.932901, "no": "527", "name_en": "Yeouinaru", "link-en": "https://en.wikipedia.org/wiki/Yeouinaru_station", "link-kr": "https://ko.wikipedia.org/wiki/여의나루역" }, "geometry": { "type": "Point", "coordinates": [ 126.932901, 37.527098 ] } },
{ "type": "Feature", "properties": { "field_1": 259, "line": "05호선", "name_kr": "마포", "lat": 37.539574, "lng": 126.945932, "no": "528", "name_en": "Mapo", "link-en": "https://en.wikipedia.org/wiki/Mapo_station", "link-kr": "https://ko.wikipedia.org/wiki/마포역" }, "geometry": { "type": "Point", "coordinates": [ 126.945932, 37.539574 ] } },
{ "type": "Feature", "properties": { "field_1": 260, "line": "05호선", "name_kr": "공덕", "lat": 37.544018, "lng": 126.951592, "no": "529", "name_en": "Gongdeok", "link-en": "https://en.wikipedia.org/wiki/Gongdeok_station", "link-kr": "https://ko.wikipedia.org/wiki/공덕역" }, "geometry": { "type": "Point", "coordinates": [ 126.951592, 37.544018 ] } },
{ "type": "Feature", "properties": { "field_1": 261, "line": "05호선", "name_kr": "애오개", "lat": 37.553736, "lng": 126.95682, "no": "530", "name_en": "Aeogae", "link-en": "https://en.wikipedia.org/wiki/Aeogae_station", "link-kr": "https://ko.wikipedia.org/wiki/애오개역" }, "geometry": { "type": "Point", "coordinates": [ 126.95682, 37.553736 ] } },
{ "type": "Feature", "properties": { "field_1": 263, "line": "05호선", "name_kr": "서대문", "lat": 37.565773, "lng": 126.966641, "no": "532", "name_en": "Seodaemun", "link-en": "https://en.wikipedia.org/wiki/Seodaemun_station", "link-kr": "https://ko.wikipedia.org/wiki/서대문역" }, "geometry": { "type": "Point", "coordinates": [ 126.966641, 37.565773 ] } },
{ "type": "Feature", "properties": { "field_1": 264, "line": "05호선", "name_kr": "광화문", "lat": 37.571026, "lng": 126.976669, "no": "533", "name_en": "Gwanghwamun", "link-en": "https://en.wikipedia.org/wiki/Gwanghwamun_station", "link-kr": "https://ko.wikipedia.org/wiki/광화문역" }, "geometry": { "type": "Point", "coordinates": [ 126.976669, 37.571026 ] } },
{ "type": "Feature", "properties": { "field_1": 268, "line": "05호선", "name_kr": "청구", "lat": 37.560245, "lng": 127.013828, "no": "537", "name_en": "Cheonggu", "link-en": "https://en.wikipedia.org/wiki/Cheonggu_station", "link-kr": "https://ko.wikipedia.org/wiki/청구역" }, "geometry": { "type": "Point", "coordinates": [ 127.013828, 37.560245 ] } },
{ "type": "Feature", "properties": { "field_1": 269, "line": "05호선", "name_kr": "신금호", "lat": 37.554548, "lng": 127.020331, "no": "538", "name_en": "Singeumho", "link-en": "https://en.wikipedia.org/wiki/Singeumho_station", "link-kr": "https://ko.wikipedia.org/wiki/신금호역" }, "geometry": { "type": "Point", "coordinates": [ 127.020331, 37.554548 ] } },
{ "type": "Feature", "properties": { "field_1": 270, "line": "05호선", "name_kr": "행당", "lat": 37.557322, "lng": 127.029476, "no": "539", "name_en": "Haengdang", "link-en": "https://en.wikipedia.org/wiki/Haengdang_station", "link-kr": "https://ko.wikipedia.org/wiki/행당역" }, "geometry": { "type": "Point", "coordinates": [ 127.029476, 37.557322 ] } },
{ "type": "Feature", "properties": { "field_1": 272, "line": "05호선", "name_kr": "마장", "lat": 37.5661, "lng": 127.042973, "no": "541", "name_en": "Majang", "link-en": "https://en.wikipedia.org/wiki/Majang_station", "link-kr": "https://ko.wikipedia.org/wiki/마장역" }, "geometry": { "type": "Point", "coordinates": [ 127.042973, 37.5661 ] } },
{ "type": "Feature", "properties": { "field_1": 273, "line": "05호선", "name_kr": "답십리", "lat": 37.566747, "lng": 127.052704, "no": "542", "name_en": "Dapsimni", "link-en": "https://en.wikipedia.org/wiki/Dapsimni_station", "link-kr": "https://ko.wikipedia.org/wiki/답십리역" }, "geometry": { "type": "Point", "coordinates": [ 127.052704, 37.566747 ] } },
{ "type": "Feature", "properties": { "field_1": 274, "line": "05호선", "name_kr": "장한평", "lat": 37.56144, "lng": 127.064623, "no": "543", "name_en": "Janghanpyeong", "link-en": "https://en.wikipedia.org/wiki/Janghanpyeong_station", "link-kr": "https://ko.wikipedia.org/wiki/장한평역" }, "geometry": { "type": "Point", "coordinates": [ 127.064623, 37.56144 ] } },
{ "type": "Feature", "properties": { "field_1": 275, "line": "05호선", "name_kr": "군자", "lat": 37.557121, "lng": 127.079542, "no": "544", "name_en": "Gunja", "link-en": "https://en.wikipedia.org/wiki/Gunja_station", "link-kr": "https://ko.wikipedia.org/wiki/군자역" }, "geometry": { "type": "Point", "coordinates": [ 127.079542, 37.557121 ] } },
{ "type": "Feature", "properties": { "field_1": 276, "line": "05호선", "name_kr": "아차산", "lat": 37.551691, "lng": 127.089761, "no": "545", "name_en": "Achasan", "link-en": "https://en.wikipedia.org/wiki/Achasan_station", "link-kr": "https://ko.wikipedia.org/wiki/아차산역" }, "geometry": { "type": "Point", "coordinates": [ 127.089761, 37.551691 ] } },
{ "type": "Feature", "properties": { "field_1": 277, "line": "05호선", "name_kr": "광나루", "lat": 37.545303, "lng": 127.10357, "no": "546", "name_en": "Gwangnaru", "link-en": "https://en.wikipedia.org/wiki/Gwangnaru_station", "link-kr": "https://ko.wikipedia.org/wiki/광나루역" }, "geometry": { "type": "Point", "coordinates": [ 127.10357, 37.545303 ] } },
{ "type": "Feature", "properties": { "field_1": 278, "line": "05호선", "name_kr": "천호", "lat": 37.538397, "lng": 127.123572, "no": "547", "name_en": "Cheonho", "link-en": "https://en.wikipedia.org/wiki/Cheonho_station", "link-kr": "https://ko.wikipedia.org/wiki/천호역" }, "geometry": { "type": "Point", "coordinates": [ 127.123572, 37.538397 ] } },
{ "type": "Feature", "properties": { "field_1": 279, "line": "05호선", "name_kr": "강동", "lat": 37.535804, "lng": 127.132481, "no": "548", "name_en": "Gangdong", "link-en": "https://en.wikipedia.org/wiki/Gangdong_station", "link-kr": "https://ko.wikipedia.org/wiki/강동역" }, "geometry": { "type": "Point", "coordinates": [ 127.132481, 37.535804 ] } },
{ "type": "Feature", "properties": { "field_1": 280, "line": "05호선", "name_kr": "길동", "lat": 37.537801, "lng": 127.140004, "no": "549", "name_en": "Gil-dong", "link-en": "https://en.wikipedia.org/wiki/Gil-dong_station", "link-kr": "https://ko.wikipedia.org/wiki/길동역" }, "geometry": { "type": "Point", "coordinates": [ 127.140004, 37.537801 ] } },
{ "type": "Feature", "properties": { "field_1": 281, "line": "05호선", "name_kr": "굽은다리", "lat": 37.545477, "lng": 127.142853, "no": "550", "name_en": "Gubeundari", "link-en": "https://en.wikipedia.org/wiki/Gubeundari_station", "link-kr": "https://ko.wikipedia.org/wiki/굽은다리역" }, "geometry": { "type": "Point", "coordinates": [ 127.142853, 37.545477 ] } },
{ "type": "Feature", "properties": { "field_1": 282, "line": "05호선", "name_kr": "명일", "lat": 37.55137, "lng": 127.143999, "no": "551", "name_en": "Myeongil", "link-en": "https://en.wikipedia.org/wiki/Myeongil_station", "link-kr": "https://ko.wikipedia.org/wiki/명일역" }, "geometry": { "type": "Point", "coordinates": [ 127.143999, 37.55137 ] } },
{ "type": "Feature", "properties": { "field_1": 283, "line": "05호선", "name_kr": "고덕", "lat": 37.555004, "lng": 127.154151, "no": "552", "name_en": "Godeok", "link-en": "https://en.wikipedia.org/wiki/Godeok_station", "link-kr": "https://ko.wikipedia.org/wiki/고덕역" }, "geometry": { "type": "Point", "coordinates": [ 127.154151, 37.555004 ] } },
{ "type": "Feature", "properties": { "field_1": 284, "line": "05호선", "name_kr": "상일동", "lat": 37.556712, "lng": 127.166417, "no": "553", "name_en": "Sangil-dong", "link-en": "https://en.wikipedia.org/wiki/Sangil-dong_station", "link-kr": "https://ko.wikipedia.org/wiki/상일동역" }, "geometry": { "type": "Point", "coordinates": [ 127.166417, 37.556712 ] } },
{ "type": "Feature", "properties": { "field_1": 285, "line": "05호선", "name_kr": "강일", "lat": 37.557465, "lng": 127.175864, "no": "554", "name_en": "Gangil", "link-en": "https://en.wikipedia.org/wiki/Gangil_station", "link-kr": "https://ko.wikipedia.org/wiki/강일역" }, "geometry": { "type": "Point", "coordinates": [ 127.175864, 37.557465 ] } },
{ "type": "Feature", "properties": { "field_1": 286, "line": "05호선", "name_kr": "미사", "lat": 37.563132, "lng": 127.192968, "no": "555", "name_en": "Misa", "link-en": "https://en.wikipedia.org/wiki/Misa_station", "link-kr": "https://ko.wikipedia.org/wiki/미사역" }, "geometry": { "type": "Point", "coordinates": [ 127.192968, 37.563132 ] } },
{ "type": "Feature", "properties": { "field_1": 287, "line": "05호선", "name_kr": "하남풍산", "lat": 37.552125, "lng": 127.203912, "no": "556", "name_en": "Hanam Pungsan", "link-en": "https://en.wikipedia.org/wiki/Hanam_Pungsan_station", "link-kr": "https://ko.wikipedia.org/wiki/하남풍산역" }, "geometry": { "type": "Point", "coordinates": [ 127.203912, 37.552125 ] } },
{ "type": "Feature", "properties": { "field_1": 288, "line": "05호선", "name_kr": "하남시청", "lat": 37.541682, "lng": 127.206869, "no": "557", "name_en": "Hanam City Hall", "link-en": "https://en.wikipedia.org/wiki/Hanam_City_Hall_station", "link-kr": "https://ko.wikipedia.org/wiki/하남시청역" }, "geometry": { "type": "Point", "coordinates": [ 127.206869, 37.541682 ] } },
{ "type": "Feature", "properties": { "field_1": 289, "line": "05호선", "name_kr": "하남검단산", "lat": 37.539809, "lng": 127.223249, "no": "558", "name_en": "Hanam Geomdansan", "link-en": "https://en.wikipedia.org/wiki/Hanam_Geomdansan_station", "link-kr": "https://ko.wikipedia.org/wiki/하남검단산역" }, "geometry": { "type": "Point", "coordinates": [ 127.223249, 37.539809 ] } },
{ "type": "Feature", "properties": { "field_1": 290, "line": "05호선", "name_kr": "둔촌동", "lat": 37.527788, "lng": 127.136248, "no": "P549", "name_en": "Dunchon-dong", "link-en": "https://en.wikipedia.org/wiki/Dunchon-dong_station", "link-kr": "https://ko.wikipedia.org/wiki/둔촌동역" }, "geometry": { "type": "Point", "coordinates": [ 127.136248, 37.527788 ] } },
{ "type": "Feature", "properties": { "field_1": 291, "line": "05호선", "name_kr": "올림픽공원", "lat": 37.516078, "lng": 127.130848, "no": "P550", "name_en": "Olympic Park", "link-en": "https://en.wikipedia.org/wiki/Olympic_Park_station_(Seoul)", "link-kr": "https://ko.wikipedia.org/wiki/올림픽공원역" }, "geometry": { "type": "Point", "coordinates": [ 127.130848, 37.516078 ] } },
{ "type": "Feature", "properties": { "field_1": 292, "line": "05호선", "name_kr": "방이", "lat": 37.508857, "lng": 127.126133, "no": "P551", "name_en": "Bangi", "link-en": "https://en.wikipedia.org/wiki/Bangi_station", "link-kr": "https://ko.wikipedia.org/wiki/방이역" }, "geometry": { "type": "Point", "coordinates": [ 127.126133, 37.508857 ] } },
{ "type": "Feature", "properties": { "field_1": 294, "line": "05호선", "name_kr": "개롱", "lat": 37.498079, "lng": 127.13482, "no": "P553", "name_en": "Gaerong", "link-en": "https://en.wikipedia.org/wiki/Gaerong_station", "link-kr": "https://ko.wikipedia.org/wiki/개롱역" }, "geometry": { "type": "Point", "coordinates": [ 127.13482, 37.498079 ] } },
{ "type": "Feature", "properties": { "field_1": 295, "line": "05호선", "name_kr": "거여", "lat": 37.493105, "lng": 127.14415, "no": "P554", "name_en": "Geoyeo", "link-en": "https://en.wikipedia.org/wiki/Geoyeo_station", "link-kr": "https://ko.wikipedia.org/wiki/거여역" }, "geometry": { "type": "Point", "coordinates": [ 127.14415, 37.493105 ] } },
{ "type": "Feature", "properties": { "field_1": 296, "line": "05호선", "name_kr": "마천", "lat": 37.49499, "lng": 127.152781, "no": "P555", "name_en": "Macheon", "link-en": "https://en.wikipedia.org/wiki/Macheon_station", "link-kr": "https://ko.wikipedia.org/wiki/마천역" }, "geometry": { "type": "Point", "coordinates": [ 127.152781, 37.49499 ] } },
{ "type": "Feature", "properties": { "field_1": 297, "line": "06호선", "name_kr": "응암", "lat": 37.598605, "lng": 126.915577, "no": "610", "name_en": "Eungam", "link-en": "https://en.wikipedia.org/wiki/Eungam_station", "link-kr": "https://ko.wikipedia.org/wiki/응암역" }, "geometry": { "type": "Point", "coordinates": [ 126.915577, 37.598605 ] } },
{ "type": "Feature", "properties": { "field_1": 298, "line": "06호선", "name_kr": "역촌", "lat": 37.606021, "lng": 126.922744, "no": "611", "name_en": "Yeokchon", "link-en": "https://en.wikipedia.org/wiki/Yeokchon_station", "link-kr": "https://ko.wikipedia.org/wiki/역촌역" }, "geometry": { "type": "Point", "coordinates": [ 126.922744, 37.606021 ] } },
{ "type": "Feature", "properties": { "field_1": 300, "line": "06호선", "name_kr": "독바위", "lat": 37.618456, "lng": 126.933031, "no": "613", "name_en": "Dokbawi", "link-en": "https://en.wikipedia.org/wiki/Dokbawi_station", "link-kr": "https://ko.wikipedia.org/wiki/독바위역" }, "geometry": { "type": "Point", "coordinates": [ 126.933031, 37.618456 ] } },
{ "type": "Feature", "properties": { "field_1": 302, "line": "06호선", "name_kr": "구산", "lat": 37.611377, "lng": 126.91727, "no": "615", "name_en": "Gusan", "link-en": "https://en.wikipedia.org/wiki/Gusan_station", "link-kr": "https://ko.wikipedia.org/wiki/구산역" }, "geometry": { "type": "Point", "coordinates": [ 126.91727, 37.611377 ] } },
{ "type": "Feature", "properties": { "field_1": 303, "line": "06호선", "name_kr": "새절", "lat": 37.591148, "lng": 126.913629, "no": "616", "name_en": "Saejeol", "link-en": "https://en.wikipedia.org/wiki/Saejeol_station", "link-kr": "https://ko.wikipedia.org/wiki/새절역" }, "geometry": { "type": "Point", "coordinates": [ 126.913629, 37.591148 ] } },
{ "type": "Feature", "properties": { "field_1": 304, "line": "06호선", "name_kr": "증산", "lat": 37.583876, "lng": 126.909645, "no": "617", "name_en": "Jeungsan", "link-en": "https://en.wikipedia.org/wiki/Jeungsan_station", "link-kr": "https://ko.wikipedia.org/wiki/증산역" }, "geometry": { "type": "Point", "coordinates": [ 126.909645, 37.583876 ] } },
{ "type": "Feature", "properties": { "field_1": 305, "line": "06호선", "name_kr": "디지털미디어시티", "lat": 37.576646, "lng": 126.900984, "no": "618", "name_en": "Digital Media City", "link-en": "https://en.wikipedia.org/wiki/Digital_Media_City_station", "link-kr": "https://ko.wikipedia.org/wiki/디지털미디어시티역" }, "geometry": { "type": "Point", "coordinates": [ 126.900984, 37.576646 ] } },
{ "type": "Feature", "properties": { "field_1": 306, "line": "06호선", "name_kr": "월드컵경기장", "lat": 37.569532, "lng": 126.899298, "no": "619", "name_en": "World Cup Stadium", "link-en": "https://en.wikipedia.org/wiki/World_Cup_Stadium_station", "link-kr": "https://ko.wikipedia.org/wiki/월드컵경기장역" }, "geometry": { "type": "Point", "coordinates": [ 126.899298, 37.569532 ] } },
{ "type": "Feature", "properties": { "field_1": 307, "line": "06호선", "name_kr": "마포구청", "lat": 37.563515, "lng": 126.903343, "no": "620", "name_en": "Mapo-gu Office", "link-en": "https://en.wikipedia.org/wiki/Mapo-gu_Office_station", "link-kr": "https://ko.wikipedia.org/wiki/마포구청역" }, "geometry": { "type": "Point", "coordinates": [ 126.903343, 37.563515 ] } },